ts(Global),ts(GNSS),ts(GNSS time),LLH(latitude),LLH(longitude),LLH(altitude),GNSS_qual,GNSS_age,TM(north),TM(east),Heading(GPS),ts(bucket - MC),bucket_x,bucket_y,bucket_z,slope_boom,slope_arm,slope_bucket,swing_angle,track_angle,body_roll,body_pitch,ts(Engine),rpm,fuel_consumption_rate,ts(pressure),p_boom_up,p_boom_down,p_arm_in,p_arm_out,p_bkt_in,p_bkt_out,p_swing_left,p_swing_right,p_pilot_boom_up,p_pilot_boom_down,p_pilot_arm_in,p_pilot_arm_out,p_pilot_bkt_in,p_pilot_bkt_out,p_pilot_swing_left,p_pilot_swing_right,ts(pc),laz_file_name,ts(svo_cam),ts_svo_cam,svo_timestamp,Unnamed: 47,dx,dy,dz,pred_p_pilot_boom_up,pred_p_pilot_boom_down,pred_p_pilot_arm_in,pred_p_pilot_arm_out,pred_p_pilot_bkt_in,pred_p_pilot_bkt_out,pred_p_pilot_swing_left,pred_p_pilot_swing_right,pred_boom_duty,pred_arm_duty,pred_bucket_duty,pred_swing_duty,goal_bucket_x,goal_bucket_y,goal_bucket_z
153734.5714,2.143898962, 20260303-15:37:34-550000,35.93917029,126.5488735,6.767,4,1.5,371391963,159294218.4,264.261,2.180885973,-1041.48,10727.03,-1974.89,4.524,-34.201,6.226,95.713,5.5,-0.045,0.876,2.194864758,800,3.1,0,144.6,2.4,2.4,288,36.6,100.2,2.4,1.8,4,2,3,6,5,3,2,3,2.184100911, pc_20260303_153734_556.laz,-1772519852, ,0,,0,0,0,10.34309765,9.898146625,10.6032611,10.56372074,10.32596108,9.822047736,10.29024502,10.1703205,10.34309765,-10.6032611,-10.32596108,10.29024502,-594.29,6284.5,-2017.37
153734.6715,2.243839609, 20260303-15:37:34-650000,35.93917029,126.5488735,6.7667,4,1.6,371391963.9,159294218.8,264.263,2.280887316,-1041.49,10727.2,-1974.74,4.517,-34.194,6.221,95.712,5.5,-0.045,0.871,2.294608366,800,3.1,0,144.6,2.4,2.4,288,36.6,100.2,2.4,1.8,3,4,4,2,5,5,1,7,2.283947693, pc_20260303_153734_656.laz,-1772519852, ,0,,-0.01,0.17,0.15,10.28562648,9.886660079,10.62575875,10.63627763,10.42368022,9.718149861,10.27810757,10.18112904,10.28562648,10.63627763,-10.42368022,10.27810757,-594.29,6284.5,-2017.37
153734.7715,2.34387595, 20260303-15:37:34-750000,35.93917029,126.5488735,6.7683,4,0.8,371391963.9,159294219.6,264.275,2.380861012,-1041.12,10727.39,-1974.27,4.521,-34.193,6.225,95.71,5.5,-0.045,0.873,2.394495178,801,3.05,0,144.6,2.4,2.4,288,36.6,100.2,2.4,1.8,4,2,0,6,3,0,6,2,2.38438728, pc_20260303_153734_756.laz,-1772519852, ,0,,0.37,0.19,0.47,10.36082569,9.844291883,10.76928895,10.59421537,10.40018927,9.721409884,10.26987158,10.1893642,10.36082569,-10.76928895,-10.40018927,10.26987158,-594.29,6284.5,-2017.37
153734.8714,2.44364675, 20260303-15:37:34-850000,35.93917029,126.5488735,6.7675,4,0.9,371391963.9,159294219.1,264.27,2.480855773,-1041.18,10727.39,-1974.86,4.518,-34.189,6.226,95.711,5.5,-0.046,0.876,2.495147966,800,3.05,0,144.6,2.4,2.4,288,36.6,100.2,2.4,1.8,5,3,6,4,3,5,2,3,2.483958445, pc_20260303_153734_856.laz,-1772519852, ,0,,-0.06,0,-0.59,10.27329974,9.950301564,10.61102027,10.51231816,10.27624601,9.861713658,10.29697139,10.18725456,10.27329974,-10.61102027,-10.27624601,10.29697139,-594.29,6284.5,-2017.37
153734.9714,2.543698784, 20260303-15:37:34-950000,35.9391703,126.5488735,6.7697,4,0.9,371391964.8,159294219.7,264.258,2.580896453,-1041.04,10727.6,-1974.26,4.516,-34.187,6.23,95.71,5.5,-0.047,0.872,2.594287235,800,3.1,0,144.6,2.4,1.8,287.4,36,99.6,2.4,1.8,1,7,2,5,4,3,2,6,2.584051299, pc_20260303_153734_957.laz,-1772519852, ,0,,0.14,0.21,0.6,10.25587856,9.923922168,10.79239921,10.53611223,10.36178096,9.750143025,10.2775134,10.17224828,10.25587856,-10.79239921,-10.36178096,10.2775134,-594.29,6284.5,-2017.37
153735.0714,2.644257745, 20260303-15:37:35-050000,35.9391703,126.5488735,6.7705,4,1,371391964.8,159294220,264.273,2.680967337,-1041.04,10727.56,-1974.11,4.522,-34.19,6.232,95.71,5.5,-0.049,0.876,2.695533481,801.5,3,0,144.6,2.4,2.4,287.4,36.6,99.6,2.4,1.8,5,3,4,2,6,2,7,2,2.684341983, pc_20260303_153735_056.laz,-1772519852, ,0,,0,-0.04,0.15,10.2097599,10.01213733,10.87598643,10.37214343,10.20161537,9.877457319,10.29769999,10.18408698,10.2097599,-10.87598643,-10.20161537,10.29769999,-594.29,6284.5,-2017.37
153735.1714,2.744314926, 20260303-15:37:35-150000,35.9391703,126.5488735,6.77,4,1.1,371391965,159294219,264.256,2.780918808,-1040.89,10727.67,-1974.36,4.519,-34.185,6.233,95.709,5.5,-0.047,0.877,2.794410758,801,3.05,0,144.6,2.4,2.4,287.4,36,99.6,2.4,1.8,4,1,1,5,4,6,7,2,2.784443043, pc_20260303_153735_157.laz,-1772519852, ,0,,0.15,0.11,-0.25,10.2701993,9.963924641,10.73936772,10.45511332,10.23882167,9.87616449,10.29428412,10.1854219,10.2701993,-10.73936772,-10.23882167,10.29428412,-594.29,6284.5,-2017.37
153735.2716,2.844247951, 20260303-15:37:35-250000,35.93917031,126.5488735,6.7705,4,1.3,371391965.5,159294219.2,264.269,2.880876449,-1040.91,10727.73,-1973.95,4.518,-34.187,6.237,95.709,5.5,-0.046,0.874,2.894475111,800,3.1,0,144,2.4,2.4,286.8,36,99.6,2.4,1.8,3,10,6,4,0,3,2,7,2.883928487, pc_20260303_153735_256.laz,-1772519852, ,0,,-0.02,0.06,0.41,10.28021203,9.925534014,10.67944456,10.55944021,10.34394973,9.788233013,10.29080328,10.16112686,10.28021203,-10.67944456,-10.34394973,10.29080328,-594.29,6284.5,-2017.37
153735.3717,2.944109749, 20260303-15:37:35-350000,35.93917031,126.5488735,6.7714,4,1.4,371391965.8,159294218.8,264.269,2.98087559,-1041.54,10727.64,-1974.4,4.517,-34.186,6.24,95.713,5.5,-0.046,0.875,2.995464645,801,3.1,0,144.6,2.4,2.4,286.8,36,99.6,2.4,1.8,4,2,2,3,3,3,6,3,2.98374754, pc_20260303_153735_356.laz,-1772519852, ,0,,-0.63,-0.09,-0.45,10.20686311,10.01487327,10.47521208,10.54904547,10.28137919,9.870940648,10.31827585,10.15224515,10.20686311,10.54904547,-10.28137919,10.31827585,-594.29,6284.5,-2017.37
153735.4716,3.044003187, 20260303-15:37:35-450000,35.9391703,126.5488735,6.7724,4,1.5,371391964.7,159294219.3,264.255,3.080951063,-1042.01,10727.82,-1973.72,4.518,-34.184,6.244,95.715,5.5,-0.045,0.875,3.095190684,800.5,3.05,0,144,2.4,2.4,286.8,36,99.6,2.4,1.8,4,2,5,4,5,6,1,2,3.085023889, pc_20260303_153735_457.laz,-1772519852, ,0,,-0.47,0.18,0.68,10.27141468,9.969034287,10.44661761,10.63515951,10.35509439,9.820778754,10.30971734,10.10522071,10.27141468,10.63515951,-10.35509439,10.30971734,-594.29,6284.5,-2017.37
153735.5715,3.144101644, 20260303-15:37:35-550000,35.93917029,126.5488735,6.7706,4,1.5,371391963.9,159294218.9,264.295,3.180876406,-1041.8,10727.86,-1973.33,4.522,-34.184,6.24,95.714,5.5,-0.047,0.876,3.194623082,800,3.1,0,144,2.4,2.4,286.2,36,99.6,2.4,1.8,1,1,5,3,4,7,5,5,3.183835146, pc_20260303_153735_556.laz,3.182780091, 20260303-153735.552785,1.77252E+18,,0.21,0.04,0.39,10.28703263,9.936437932,10.78900202,10.47265269,10.27558277,9.831656638,10.28854741,10.17375286,10.28703263,-10.78900202,-10.27558277,10.28854741,-594.29,6284.5,-2017.37
153735.6716,3.244420188, 20260303-15:37:35-650000,35.9391703,126.5488735,6.7708,4,1.6,371391964.5,159294218.3,264.282,3.280894733,-1041.71,10727.88,-1973.69,4.524,-34.181,6.239,95.714,5.5,-0.048,0.881,3.294466341,801,3,0,144,2.4,1.8,286.2,36,99.6,2.4,1.8,4,2,7,5,2,3,6,3,3.284418374, pc_20260303_153735_656.laz,3.278970724, 20260303-153735.648998,1.77252E+18,,0.09,0.02,-0.36,10.2731701,10.0118546,10.71288114,10.37156837,10.16277211,9.9614602,10.31035719,10.16450781,10.2731701,-10.71288114,-10.16277211,10.31035719,-594.29,6284.5,-2017.37
153735.7715,3.343648402, 20260303-15:37:35-750000,35.93917029,126.5488734,6.7698,4,1.8,371391963.9,159294217.8,264.25,3.380901098,-1041.31,10727.92,-1973.5,4.523,-34.184,6.245,95.712,5.5,-0.048,0.879,3.394915954,800.5,3.05,0,144,2.4,1.8,286.2,36,99.6,2.4,1.8,4,0,3,1,4,1,1,4,3.384065335, pc_20260303_153735_756.laz,3.377770494, 20260303-153735.747793,1.77252E+18,,0.4,0.04,0.19,10.29728722,9.956193924,10.87598795,10.37473774,10.19408544,9.899660976,10.29041256,10.18347925,10.29728722,-10.87598795,-10.19408544,10.29041256,-594.29,6284.5,-2017.37
153735.8716,3.443689994, 20260303-15:37:35-850000,35.93917029,126.5488735,6.77,4,1.9,371391963.2,159294218.5,264.261,3.480881213,-1041.69,10727.95,-1973.82,4.517,-34.18,6.246,95.714,5.5,-0.049,0.876,3.49472494,800,3.15,0,144,2.4,1.8,285.6,36,99.6,2.4,1.8,4,9,3,7,4,0,4,6,3.483780953, pc_20260303_153735_856.laz,3.480715993, 20260303-153735.850754,1.77252E+18,,-0.38,0.03,-0.32,10.1403905,10.08549234,10.64558978,10.410266,10.18397808,9.915468425,10.31586262,10.16974194,10.1403905,-10.64558978,-10.18397808,10.31586262,-594.29,6284.5,-2017.37
153735.972,3.543291178, 20260303-15:37:35-950000,35.93917029,126.5488735,6.7702,4,2,371391963.2,159294218.6,264.263,3.580913177,-1041.67,10728.11,-1973.31,4.522,-34.179,6.252,95.714,5.5,-0.053,0.879,3.59488152,801.5,3.15,0,144,2.4,2.4,285.6,36,99.6,2.4,1.8,2,2,3,2,5,4,7,3,3.583543109, pc_20260303_153735_956.laz,3.579298861, 20260303-153735.949320,1.77252E+18,,0.02,0.16,0.51,10.17894719,10.14545738,10.90217297,10.30677898,10.22425997,9.909202167,10.3283693,10.16619254,10.17894719,-10.90217297,-10.22425997,10.3283693,-594.29,6284.5,-2017.37
153736.0715,3.645597216, 20260303-15:37:36-050000,35.93917028,126.5488735,6.7681,4,2,371391962.8,159294218.9,264.26,3.680909797,-1041.76,10728.1,-1973.54,4.518,-34.178,6.252,95.715,5.5,-0.052,0.877,3.694949426,801,3.05,0,144,2.4,1.8,285.6,36,99.6,2.4,1.8,3,0,1,4,0,2,3,3,3.684128744, pc_20260303_153736_057.laz,3.679239658, 20260303-153736.049266,1.77252E+18,,-0.09,-0.01,-0.23,10.14499386,10.12056886,10.87224804,10.32994905,10.20741665,9.898561109,10.31641662,10.19545902,10.14499386,-10.87224804,-10.20741665,10.31641662,-594.29,6284.5,-2017.37
153736.1715,3.743562499, 20260303-15:37:36-150000,35.93917028,126.5488735,6.7675,4,1.1,371391962.8,159294218.7,264.266,3.780889898,-1041.86,10728.12,-1973.97,4.513,-34.173,6.252,95.715,5.5,-0.051,0.877,3.794551045,799.5,3.1,0,144,2.4,2.4,285.6,36,99.6,2.4,1.8,2,9,7,2,3,2,4,4,3.783864192, pc_20260303_153736_156.laz,3.779196649, 20260303-153736.149215,1.77252E+18,,-0.1,0.02,-0.43,10.1474818,10.09844296,10.78444895,10.3509608,10.19069117,9.910018655,10.31041251,10.19272043,10.1474818,-10.78444895,-10.19069117,10.31041251,-594.29,6284.5,-2017.37
153736.2715,3.844211784, 20260303-15:37:36-250000,35.93917028,126.5488734,6.7692,4,1.3,371391962.3,159294218,264.246,3.880876122,-1041.78,10728.16,-1973.69,4.517,-34.176,6.258,95.715,5.5,-0.052,0.879,3.894832365,801.5,3.05,0,144,2.4,2.4,285.6,36,99.6,2.4,1.8,2,1,1,1,7,3,6,2,3.884616019, pc_20260303_153736_257.laz,3.884102368, 20260303-153736.254104,1.77252E+18,,0.08,0.04,0.28,10.19594073,10.10080322,10.92441876,10.30229528,10.20339182,9.911653089,10.3180644,10.17671373,10.19594073,-10.92441876,-10.20339182,10.3180644,-594.29,6284.5,-2017.37
153736.3715,3.94394294, 20260303-15:37:36-350000,35.93917028,126.5488734,6.7692,4,1.4,371391962.3,159294217.7,264.278,3.980875265,-1041.87,10728.15,-1973.94,4.518,-34.175,6.259,95.715,5.5,-0.052,0.882,3.994909487,800.5,3.05,0,144,2.4,2.4,285.6,36,99.6,2.4,1.8,5,0,4,4,5,2,1,3,3.984468653, pc_20260303_153736_357.laz,3.979183943, 20260303-153736.349209,1.77252E+18,,-0.09,-0.01,-0.25,10.19946375,10.13924214,10.73133088,10.298523,10.18253582,9.973387293,10.33888669,10.16216827,10.19946375,-10.73133088,-10.18253582,10.33888669,-594.29,6284.5,-2017.37
153736.4715,4.04424764, 20260303-15:37:36-450000,35.93917027,126.5488734,6.7703,4,1.5,371391961.4,159294216.7,264.281,4.080885734,-1042.32,10728.32,-1973.33,4.516,-34.172,6.263,95.717,5.5,-0.049,0.879,4.095065716,800,3.05,0,144,2.4,2.4,285,36,99.6,2.4,1.8,4,9,1,1,3,7,2,7,4.084072086, pc_20260303_153736_456.laz,4.081994782, 20260303-153736.451984,1.77252E+18,,-0.45,0.17,0.61,10.17042398,10.10754888,10.58629886,10.40613613,10.16295671,9.956838772,10.32924759,10.10852751,10.17042398,-10.58629886,-10.16295671,10.32924759,-594.29,6284.5,-2017.37
153736.5715,4.144533209, 20260303-15:37:36-550000,35.93917026,126.5488734,6.7709,4,1.5,371391960.3,159294217.1,264.266,4.18088122,-1042.51,10728.29,-1973.02,4.52,-34.176,6.267,95.718,5.5,-0.048,0.88,4.195133941,801,3.05,0,144,2.4,2.4,285,36,99.6,2.4,1.8,2,1,7,4,0,1,6,2,4.184133731, pc_20260303_153736_556.laz,4.177730233, 20260303-153736.547772,1.77252E+18,,-0.19,-0.03,0.31,10.24644286,10.03410999,10.68260562,10.39434096,10.17016926,9.949032827,10.31821315,10.13394269,10.24644286,-10.68260562,-10.17016926,10.31821315,-594.29,6284.5,-2017.37
153736.6715,4.243852906, 20260303-15:37:36-650000,35.93917025,126.5488734,6.7718,4,1.6,371391959.2,159294217.2,264.273,4.280870365,-1042.37,10728.41,-1973.28,4.523,-34.17,6.265,95.718,5.5,-0.052,0.887,4.294682407,800.5,3.05,0,144,2.4,2.4,285,36,99.6,2.4,1.8,3,2,2,2,5,0,5,3,4.284753281, pc_20260303_153736_657.laz,4.279941341, 20260303-153736.649983,1.77252E+18,,0.14,0.12,-0.26,10.27079849,10.1391515,10.66188319,10.26045896,10.16218618,10.03878254,10.35052266,10.13466861,10.27079849,-10.66188319,-10.16218618,10.35052266,-594.29,6284.5,-2017.37
153736.7715,4.34346733, 20260303-15:37:36-750000,35.93917025,126.5488734,6.7705,4,0.8,371391958.8,159294217.6,264.301,4.380982009,-1042.26,10728.4,-1972.91,4.521,-34.175,6.272,95.717,5.5,-0.05,0.882,4.394948463,800,3.1,0,144,2.4,2.4,284.4,36,99,2.4,1.8,4,5,3,6,6,7,8,5,4.384122493, pc_20260303_153736_756.laz,4.378515153, 20260303-153736.748538,1.77252E+18,,0.11,-0.01,0.37,10.24998796,10.05315562,10.79189291,10.30519824,10.15377171,9.965237692,10.31801416,10.14486872,10.24998796,-10.79189291,-10.15377171,10.31801416,-594.29,6284.5,-2017.37
153736.8714,4.443769234, 20260303-15:37:36-850000,35.93917025,126.5488734,6.7726,4,0.9,371391959,159294217.3,264.285,4.480855181,-1041.99,10728.46,-1972.9,4.523,-34.174,6.273,95.716,5.5,-0.054,0.884,4.494369596,800.5,3.05,0,144,2.4,2.4,284.4,36,99,2.4,1.8,3,3,4,4,3,3,5,4,4.486073397, pc_20260303_153736_858.laz,4.481826039, 20260303-153736.851825,1.77252E+18,,0.27,0.06,0.01,10.23885299,10.15636789,10.8508801,10.24241709,10.21338759,9.968511804,10.34525068,10.17010115,10.23885299,-10.8508801,-10.21338759,10.34525068,-594.29,6284.5,-2017.37
153736.9715,4.542746049, 20260303-15:37:36-950000,35.93917026,126.5488734,6.7737,4,0.9,371391960.1,159294216.9,264.278,4.580917643,-1041.81,10728.67,-1972.37,4.523,-34.171,6.274,95.715,5.5,-0.054,0.882,4.594282649,801,3.05,0,144,2.4,2.4,284.4,36,99,2.4,1.2,4,3,4,6,3,1,1,3,4.583911596, pc_20260303_153736_956.laz,4.579269415, 20260303-153736.949293,1.77252E+18,,0.18,0.21,0.53,10.2098734,10.16910154,10.8770214,10.27151006,10.22782735,9.938775323,10.34286268,10.15706574,10.2098734,-10.8770214,-10.22782735,10.34286268,-594.29,6284.5,-2017.37
153737.0715,4.645164708, 20260303-15:37:37-050000,35.93917025,126.5488734,6.7737,4,1,371391959.5,159294217.2,264.293,4.680943039,-1041.64,10728.73,-1972.42,4.518,-34.17,6.276,95.714,5.5,-0.055,0.879,4.694734534,800,3.1,0,144,2.4,2.4,284.4,36,99,2.4,1.8,5,1,2,2,7,5,3,8,4.684755871, pc_20260303_153737_057.laz,4.679741781, 20260303-153737.049763,1.77252E+18,,0.17,0.06,-0.05,10.14295031,10.16747962,10.95422116,10.27597644,10.2555013,9.885208959,10.33964747,10.20618749,-10.16747962,-10.95422116,-10.2555013,10.33964747,-594.29,6284.5,-2017.37
153737.1715,4.743927523, 20260303-15:37:37-150000,35.93917026,126.5488734,6.7733,4,1.1,371391959.9,159294216.3,264.305,4.780974111,-1041.6,10728.88,-1972.24,4.52,-34.165,6.272,95.714,5.5,-0.057,0.882,4.794595746,801,3,0,144,2.4,2.4,284.4,36,99,2.4,1.8,3,3,3,3,4,2,6,3,4.785342309, pc_20260303_153737_158.laz,4.779045375, 20260303-153737.149069,1.77252E+18,,0.04,0.15,0.18,10.07382774,10.25264673,10.90087759,10.28285994,10.25039006,9.913821042,10.3736959,10.18632612,-10.25264673,-10.90087759,-10.25039006,10.3736959,-594.29,6284.5,-2017.37
153737.2724,4.843303747, 20260303-15:37:37-250000,35.93917026,126.5488734,6.7733,4,1.3,371391960.1,159294216.2,264.304,4.880954485,-1042.05,10728.97,-1972.29,4.514,-34.161,6.279,95.716,5.5,-0.057,0.878,4.895934475,800,3.05,0,144,2.4,2.4,283.8,36,99,2.4,1.8,3,2,0,3,2,3,6,4,4.884323882, pc_20260303_153737_256.laz,4.8799895, 20260303-153737.249763,1.77252E+18,,-0.45,0.09,-0.05,9.952136439,10.29287106,10.80367117,10.33879816,10.25515722,9.87220849,10.37725159,10.19803513,-10.29287106,-10.80367117,-10.25515722,10.37725159,-594.29,6284.5,-2017.37
153737.3715,4.943262851, 20260303-15:37:37-350000,35.93917026,126.5488734,6.7739,4,1.4,371391960.3,159294215.9,264.293,4.980922829,-1042.14,10729.04,-1972.49,4.511,-34.158,6.281,95.717,5.5,-0.058,0.878,4.995064879,799.5,3.05,0,144,2.4,2.4,283.8,36,99,2.4,1.8,4,2,6,3,1,4,3,6,4.983803594, pc_20260303_153737_356.laz,4.981475466, 20260303-153737.351523,1.77252E+18,,-0.09,0.07,-0.2,9.952634749,10.2586158,10.96806482,10.30377259,10.29217313,9.838829846,10.37249292,10.23178663,-10.2586158,-10.96806482,-10.29217313,10.37249292,-594.29,6284.5,-2017.37
153737.4714,5.043833822, 20260303-15:37:37-450000,35.93917026,126.5488734,6.7737,4,1.5,371391960.3,159294215.4,264.295,5.080879099,-1042.2,10729.21,-1972.93,4.51,-34.15,6.286,95.718,5.5,-0.06,0.883,5.094813863,801,3.1,0,144,2.4,2.4,283.8,36,99,2.4,1.8,3,6,2,3,4,1,6,3,5.083898714, pc_20260303_153737_456.laz,5.088337694, 20260303-153737.457536,1.77252E+18,,-0.06,0.17,-0.44,9.894581337,10.33705049,10.90583549,10.28656343,10.26145992,9.902594531,10.40135584,10.22074623,-10.33705049,-10.90583549,-10.26145992,10.40135584,-594.29,6284.5,-2017.37
153737.5715,5.143981902, 20260303-15:37:37-550000,35.93917026,126.5488734,6.7746,4,1.5,371391960.1,159294215,264.29,5.180983576,-1041.9,10729.22,-1972.96,4.511,-34.151,6.288,95.716,5.5,-0.061,0.885,5.194717668,800.5,3.05,0,144,2.4,2.4,283.8,35.4,99,2.4,1.8,4,2,4,4,5,4,2,2,5.18401765, pc_20260303_153737_557.laz,5.181231873, 20260303-153737.551276,1.77252E+18,,0.3,0.01,-0.03,9.961593167,10.30193453,11.08266705,10.2304051,10.26980567,9.903278061,10.39389339,10.21991692,-10.30193453,-11.08266705,-10.26980567,10.39389339,-594.29,6284.5,-2017.37
153737.6714,5.244017942, 20260303-15:37:37-650000,35.93917026,126.5488734,6.7745,4,1.6,371391960.1,159294214.6,264.312,5.280884181,-1041.93,10729.45,-1972.95,4.505,-34.14,6.279,95.716,5.5,-0.06,0.881,5.294714851,800,3.1,0,144,2.4,2.4,283.8,36,99,2.4,1.8,3,2,4,3,2,2,4,8,5.283742729, pc_20260303_153737_656.laz,5.278786741, 20260303-153737.648769,1.77252E+18,,-0.03,0.23,0.01,9.902096468,10.32032003,10.96360744,10.30661976,10.2857567,9.867943714,10.39412809,10.21585638,-10.32032003,-10.96360744,-10.2857567,10.39412809,-594.29,6284.5,-2017.37
153737.7715,5.343438691, 20260303-15:37:37-750000,35.93917025,126.5488734,6.7741,4,1.8,371391959.5,159294214.6,264.307,5.380905616,-1041.75,10729.63,-1972.56,4.505,-34.138,6.286,95.715,5.5,-0.06,0.881,5.39507163,801,3.05,0,144,2.4,2.4,283.2,36,99,2.4,1.8,3,8,3,1,3,3,5,3,5.38371469, pc_20260303_153737_756.laz,5.377796277, 20260303-153737.747836,1.77252E+18,,0.18,0.18,0.39,9.951862085,10.28602854,11.09705882,10.27576076,10.2958422,9.855252021,10.38734286,10.21506151,-10.28602854,-11.09705882,-10.2958422,10.38734286,-594.29,6284.5,-2017.37
153737.8715,5.443409014, 20260303-15:37:37-850000,35.93917025,126.5488734,6.7736,4,1.9,371391959,159294214.6,264.313,5.480869922,-1041.86,10729.53,-1973.01,4.504,-34.137,6.282,95.716,5.5,-0.06,0.883,5.495012235,801,2.95,0,144,2.4,2.4,283.2,36,99,2.4,1.8,3,3,1,4,5,4,0,3,5.483817099, pc_20260303_153737_856.laz,5.481702798, 20260303-153737.851744,1.77252E+18,,-0.11,-0.1,-0.45,9.917985636,10.31858694,10.96251651,10.25441062,10.25862684,9.898512732,10.4027249,10.23024399,-10.31858694,-10.96251651,-10.25862684,10.4027249,-594.29,6284.5,-2017.37
153737.9717,5.544102582, 20260303-15:37:37-950000,35.93917025,126.5488734,6.7738,4,2,371391958.8,159294215.5,264.31,5.580907125,-1042.01,10729.65,-1972.71,4.505,-34.136,6.288,95.717,5.5,-0.061,0.883,5.594882055,799.5,3.1,0,144,2.4,2.4,283.2,35.4,99,2.4,1.8,4,2,5,2,2,3,3,6,5.584460521, pc_20260303_153737_957.laz,5.580061947, 20260303-153737.950102,1.77252E+18,,-0.15,0.12,0.3,9.890415418,10.3570725,10.94261568,10.29907698,10.26332648,9.895131606,10.40511737,10.19333019,-10.3570725,-10.94261568,-10.26332648,10.40511737,-594.29,6284.5,-2017.37
153738.0716,5.645298211, 20260303-15:37:38-050000,35.93917025,126.5488734,6.774,4,2,371391958.8,159294214.7,264.295,5.680913597,-1042.03,10729.77,-1972.53,4.51,-34.132,6.285,95.717,5.5,-0.061,0.888,5.695516474,801.5,3,0,144,2.4,2.4,283.2,35.4,99,2.4,1.8,4,8,7,7,2,6,4,3,5.683778198, pc_20260303_153738_056.laz,5.681316737, 20260303-153738.051322,1.77252E+18,,-0.02,0.12,0.18,9.943853839,10.37458561,10.91929851,10.24940108,10.21647186,9.957795011,10.41058917,10.18637937,-10.37458561,-10.91929851,-10.21647186,10.41058917,-594.29,6284.5,-2017.37
153738.1715,5.743932503, 20260303-15:37:38-150000,35.93917024,126.5488734,6.7744,4,2.2,371391958.1,159294215.3,264.302,5.780874676,-1042.17,10729.87,-1972.33,4.512,-34.129,6.283,95.717,5.5,-0.062,0.89,5.794947944,800,3.1,0,144,2.4,1.8,283.2,35.4,99,2.4,1.8,4,3,4,2,3,1,4,4,5.78406939, pc_20260303_153738_156.laz,5.78013558, 20260303-153738.150177,1.77252E+18,,-0.14,0.1,0.2,9.902883556,10.4195074,10.83734995,10.26132687,10.18891938,9.982910838,10.42211553,10.17171185,-10.4195074,-10.83734995,-10.18891938,10.42211553,-594.29,6284.5,-2017.37
153738.2715,5.844002085, 20260303-15:37:38-250000,35.93917024,126.5488734,6.7738,4,1.3,371391958.1,159294215.4,264.279,5.880912264,-1042.37,10729.98,-1972.01,4.509,-34.127,6.287,95.718,5.5,-0.06,0.887,5.895211632,799.5,3.15,0,144,2.4,1.8,282.6,35.4,99,2.4,1.8,5,2,3,6,6,2,4,7,5.883981851, pc_20260303_153738_256.laz,5.879537993, 20260303-153738.249570,1.77252E+18,,-0.2,0.11,0.32,9.953515248,10.37389321,10.79029066,10.27080429,10.21589807,9.9587352,10.41590849,10.18017875,-10.37389321,-10.79029066,-10.21589807,10.41590849,-594.29,6284.5,-2017.37
153738.3718,5.943671835, 20260303-15:37:38-350000,35.93917023,126.5488734,6.7746,4,1.4,371391957,159294215.5,264.278,5.980949158,-1042.45,10729.98,-1972.24,4.51,-34.127,6.29,95.719,5.5,-0.062,0.89,5.994797218,801,3.15,0,144,2.4,2.4,282.6,35.4,99,2.4,1.8,3,7,5,4,6,7,5,3,5.98412763, pc_20260303_153738_356.laz,5.978198399, 20260303-153738.348230,1.77252E+18,,-0.08,0,-0.23,9.896428536,10.40804599,10.87767706,10.24321507,10.19292376,9.982029924,10.42020295,10.1896943,-10.40804599,-10.87767706,-10.19292376,10.42020295,-594.29,6284.5,-2017.37
153738.4716,6.043696278, 20260303-15:37:38-450000,35.93917022,126.5488734,6.7739,4,1.5,371391956.4,159294216.6,264.299,6.080921925,-1042.35,10730.19,-1972.07,4.507,-34.121,6.292,95.718,5.5,-0.061,0.889,6.094798722,801,3.1,0,144,2.4,2.4,282.6,35.4,99,2.4,1.8,4,2,1,7,2,0,1,4,6.083939799, pc_20260303_153738_456.laz,6.078560618, 20260303-153738.448549,1.77252E+18,,0.1,0.21,0.17,9.950637817,10.37519858,10.89970265,10.24806577,10.21309281,9.967491137,10.40967684,10.18427024,-10.37519858,-10.89970265,-10.21309281,10.40967684,-594.29,6284.5,-2017.37
153738.5715,6.143919823, 20260303-15:37:38-550000,35.93917022,126.5488734,6.7749,4,1.5,371391956.2,159294217.2,264.306,6.180922711,-1042.19,10730.25,-1971.91,4.505,-34.12,6.291,95.717,5.5,-0.061,0.886,6.194686398,800,3.15,0,144,2.4,2.4,282.6,35.4,99,2.4,1.2,3,3,3,6,4,4,4,6,6.184284326, pc_20260303_153738_556.laz,6.180183484, 20260303-153738.550225,1.77252E+18,,0.16,0.06,0.16,9.946067085,10.3355333,10.99827083,10.24522228,10.24877132,9.922801402,10.40172174,10.20210559,-10.3355333,-10.99827083,-10.24877132,10.40172174,-594.29,6284.5,-2017.37
153738.6715,6.24346694, 20260303-15:37:38-650000,35.93917022,126.5488734,6.7757,4,1.6,371391956.2,159294216.8,264.29,6.280898301,-1041.86,10730.35,-1971.9,4.508,-34.116,6.287,95.716,5.5,-0.064,0.89,6.294696158,802,3,0,144,2.4,2.4,282.6,35.4,98.4,2.4,1.2,2,7,5,3,5,2,7,3,6.284050703, pc_20260303_153738_656.laz,6.278862194, 20260303-153738.648901,1.77252E+18,,0.33,0.1,0.01,9.883155066,10.38281647,11.1495218,10.22257089,10.20757651,9.94663156,10.41152496,10.19561737,-10.38281647,-11.1495218,-10.20757651,10.41152496,-594.29,6284.5,-2017.37
153738.7715,6.343315966, 20260303-15:37:38-750000,35.93917022,126.5488734,6.7751,4,1.8,371391956.4,159294216.4,264.288,6.381004605,-1042.03,10730.34,-1971.6,4.512,-34.122,6.299,95.716,5.5,-0.062,0.892,6.394511063,801,3,0,144,2.4,2.4,282,35.4,98.4,2.4,1.8,4,3,6,3,3,1,0,3,6.385555446, pc_20260303_153738_758.laz,6.381250492, 20260303-153738.751281,1.77252E+18,,-0.17,-0.01,0.3,9.931144359,10.42844384,10.84442379,10.23653023,10.16347176,10.00700536,10.42737422,10.16453501,-10.42844384,-10.84442379,-10.16347176,10.42737422,-594.29,6284.5,-2017.37
153738.8714,6.443211542, 20260303-15:37:38-850000,35.93917022,126.5488734,6.7746,4,1.9,371391955.5,159294215.9,264.284,6.480929043,-1042.18,10730.38,-1971.75,4.506,-34.119,6.301,95.717,5.5,-0.062,0.888,6.494831073,799,3.1,0,144,2.4,2.4,282,35.4,98.4,2.4,1.8,4,2,2,4,4,4,3,3,6.483827847, pc_20260303_153738_856.laz,6.480903857, 20260303-153738.850930,1.77252E+18,,-0.15,0.04,-0.15,9.861297683,10.40990708,10.83610274,10.27542623,10.21044283,9.959310394,10.42016174,10.18808164,-10.40990708,-10.83610274,-10.21044283,10.42016174,-594.29,6284.5,-2017.37
153738.9715,6.543992112, 20260303-15:37:38-950000,35.93917022,126.5488734,6.7759,4,2,371391955.5,159294216.9,264.269,6.580931353,-1042.03,10730.54,-1971.07,4.512,-34.12,6.306,95.717,5.5,-0.063,0.891,6.595153034,801.5,3.1,0,144,2.4,2.4,282,35.4,98.4,2.4,1.8,2,9,3,3,2,4,3,3,6.584401816, pc_20260303_153738_957.laz,6.578438852, 20260303-153738.948471,1.77252E+18,,0.15,0.16,0.68,9.9264709,10.40712998,11.02437449,10.23835525,10.18782008,9.971087476,10.41536871,10.16240306,-10.40712998,-11.02437449,-10.18782008,10.41536871,-594.29,6284.5,-2017.37
153739.0715,6.644948456, 20260303-15:37:39-050000,35.93917022,126.5488734,6.7755,4,2,371391956,159294215.7,264.297,6.680894776,-1042.31,10730.52,-1970.87,4.515,-34.123,6.312,95.718,5.5,-0.063,0.892,6.695010309,800.5,3.05,0,144,2.4,2.4,282,35.4,98.4,2.4,1.8,5,3,5,5,4,6,7,4,6.683857313, pc_20260303_153739_056.laz,6.678104953, 20260303-153739.048112,1.77252E+18,,-0.28,-0.02,0.2,9.867897328,10.46474092,10.82698332,10.25955868,10.15441039,10.00558646,10.43411918,10.15939562,-10.46474092,-10.82698332,-10.15441039,10.43411918,-594.29,6284.5,-2017.37
153739.1717,6.744091455, 20260303-15:37:39-150000,35.93917022,126.5488734,6.7761,4,1.1,371391956,159294215.7,264.279,6.780992521,-1042.38,10730.6,-1970.71,4.51,-34.12,6.309,95.718,5.5,-0.061,0.888,6.794376273,799.5,3.15,0,144,2.4,1.8,282,35.4,98.4,2.4,1.8,3,4,0,3,6,1,4,2,6.784810966, pc_20260303_153739_157.laz,6.778987284, 20260303-153739.149002,1.77252E+18,,-0.07,0.08,0.16,9.920936216,10.38683493,10.84495541,10.26459532,10.21208119,9.960743203,10.41585565,10.18293729,-10.38683493,-10.84495541,-10.21208119,10.41585565,-594.29,6284.5,-2017.37
153739.2715,6.844036588, 20260303-15:37:39-250000,35.93917022,126.5488734,6.7752,4,1.3,371391956,159294216.1,264.28,6.880874885,-1042.38,10730.69,-1970.41,4.515,-34.12,6.314,95.718,5.5,-0.061,0.892,6.895019717,801.5,3.1,0,144,2.4,2.4,282,35.4,98.4,2.4,1.8,2,11,2,3,2,2,3,4,6.884038376, pc_20260303_153739_256.laz,6.877382625, 20260303-153739.247418,1.77252E+18,,0,0.09,0.3,9.974068388,10.40328539,10.8433175,10.22910094,10.17131076,10.00843466,10.42087746,10.16897345,-10.40328539,-10.8433175,-10.17131076,10.42087746,-594.29,6284.5,-2017.37
153739.3715,6.943279052, 20260303-15:37:39-350000,35.93917023,126.5488734,6.775,4,1.4,371391956.6,159294215.7,264.303,6.980928828,-1042.24,10730.69,-1970.73,4.515,-34.119,6.317,95.717,5.5,-0.06,0.894,6.994588311,800.5,3.05,0,144,2.4,1.8,281.4,35.4,98.4,2.4,1.2,4,5,8,7,3,6,3,5,6.983913618, pc_20260303_153739_356.laz,6.979891823, 20260303-153739.349909,1.77252E+18,,0.14,0,-0.32,10.02388487,10.37477332,10.75377733,10.19623465,10.1631386,10.04044615,10.42155105,10.19029098,-10.37477332,-10.75377733,-10.1631386,10.42155105,-594.29,6284.5,-2017.37
153739.4715,7.043770873, 20260303-15:37:39-450000,35.93917023,126.5488734,6.7752,4,1.5,371391956.6,159294216,264.277,7.080916099,-1042.48,10730.8,-1970.28,4.512,-34.117,6.317,95.718,5.5,-0.059,0.89,7.095510451,801.5,3.1,0,144,2.4,2.4,281.4,35.4,98.4,2.4,1.8,4,3,2,2,1,2,6,4,7.083780263, pc_20260303_153739_456.laz,7.076436163, 20260303-153739.446437,1.77252E+18,,-0.24,0.11,0.45,10.01313506,10.38757204,10.73167331,10.25903331,10.18327114,10.01176586,10.42137645,10.15033713,-10.38757204,-10.73167331,-10.18327114,10.42137645,-594.29,6284.5,-2017.37
153739.5714,7.143965693, 20260303-15:37:39-550000,35.93917024,126.5488734,6.7744,4,1.5,371391957.8,159294216.2,264.272,7.180945323,-1041.8,10730.83,-1970.26,4.517,-34.119,6.318,95.715,5.5,-0.06,0.894,7.195631446,801,3,0,144,2.4,1.8,281.4,35.4,98.4,2.4,1.8,3,11,1,6,4,3,0,4,7.184862496, pc_20260303_153739_557.laz,7.181240952, 20260303-153739.551283,1.77252E+18,,0.68,0.03,0.02,10.10761803,10.3027606,10.97682503,10.14817251,10.19398711,10.01156492,10.40271016,10.20439398,-10.3027606,-10.97682503,-10.19398711,10.40271016,-594.29,6284.5,-2017.37
153739.6715,7.243539249, 20260303-15:37:39-650000,35.93917023,126.5488734,6.7731,4,1.6,371391956.9,159294216.7,264.276,7.280923166,-1041.56,10730.96,-1970.56,4.509,-34.112,6.312,95.713,5.5,-0.058,0.89,7.294638679,800.5,3.05,0,144,2.4,2.4,281.4,35.4,98.4,2.4,1.8,4,2,4,2,5,2,5,4,7.284148147, pc_20260303_153739_656.laz,7.277917424, 20260303-153739.647959,1.77252E+18,,0.24,0.13,-0.3,10.08199336,10.31212112,10.76596687,10.23528667,10.20470252,10.01437254,10.39867666,10.17771536,-10.31212112,-10.76596687,-10.20470252,10.39867666,-594.29,6284.5,-2017.37
153739.7715,7.343507282, 20260303-15:37:39-750000,35.93917023,126.5488734,6.7748,4,1.8,371391957.5,159294217.3,264.283,7.38096994,-1041.69,10731.01,-1970.08,4.511,-34.114,6.319,95.713,5.5,-0.057,0.889,7.394794267,800.5,3.1,0,144,2.4,1.8,281.4,35.4,98.4,2.4,1.2,4,4,1,3,2,3,2,2,7.38401727, pc_20260303_153739_756.laz,7.381453565, 20260303-153739.751498,1.77252E+18,,-0.13,0.05,0.48,10.11075977,10.32230514,10.70167148,10.26216767,10.19932264,10.01954727,10.40932069,10.1327672,-10.32230514,-10.70167148,-10.19932264,10.40932069,-594.29,6284.5,-2017.37
153739.8715,7.444187421, 20260303-15:37:39-850000,35.93917023,126.5488734,6.7739,4,1.9,371391956.7,159294217.1,264.276,7.480898088,-1041.7,10731.03,-1970.06,4.516,-34.113,6.317,95.714,5.5,-0.06,0.894,7.494621238,801.5,3.05,0,144,2.4,1.8,280.8,35.4,98.4,2.4,1.8,3,11,2,3,2,4,4,2,7.484016474, pc_20260303_153739_856.laz,7.481626146, 20260303-153739.851672,1.77252E+18,,-0.01,0.02,0.02,10.01604886,10.39705808,10.75254255,10.20712173,10.15651002,10.04359574,10.42725776,10.17246192,-10.39705808,-10.75254255,-10.15651002,10.42725776,-594.29,6284.5,-2017.37
153739.9715,7.543579018, 20260303-15:37:39-950000,35.93917023,126.5488734,6.7741,4,2,371391956.9,159294217,264.268,7.580984525,-1041.88,10731.18,-1969.64,4.514,-34.112,6.323,95.715,5.5,-0.06,0.892,7.596009184,800,3.05,0,144,2.4,2.4,280.8,35.4,98.4,2.4,1.8,6,5,7,2,3,1,7,7,7.584368785, pc_20260303_153739_956.laz,7.581141427, 20260303-153739.951153,1.77252E+18,,-0.18,0.15,0.42,9.980444377,10.41696442,10.68935543,10.25284909,10.16465473,10.02365091,10.42901142,10.15643761,-10.41696442,-10.68935543,-10.16465473,10.42901142,-594.29,6284.5,-2017.37
153740.0715,7.644975928, 20260303-15:37:40-050000,35.93917023,126.5488734,6.7742,4,2,371391956.7,159294217.6,264.288,7.680938475,-1042.16,10731.11,-1969.46,4.514,-34.115,6.324,95.716,5.5,-0.058,0.889,7.694934238,801,3.1,0,144,2.4,2.4,280.8,35.4,98.4,2.4,1.8,5,3,8,6,6,6,0,4,7.684323715, pc_20260303_153740_056.laz,7.678396861, 20260303-153740.048422,1.77252E+18,,-0.28,-0.07,0.18,10.04048562,10.35823432,10.70662739,10.25970172,10.18955788,10.01369366,10.41887727,10.15191701,-10.35823432,-10.70662739,-10.18955788,10.41887727,-594.29,6284.5,-2017.37
153740.1715,7.743773607, 20260303-15:37:40-150000,35.93917023,126.5488734,6.7744,4,1.1,371391957.5,159294217.9,264.286,7.780917022,-1042.24,10731.22,-1969.17,4.517,-34.112,6.321,95.716,5.5,-0.058,0.892,7.795156197,801.5,3.05,0,144,2.4,2.4,280.8,35.4,98.4,2.4,1.8,4,10,2,2,4,3,5,3,7.784088173, pc_20260303_153740_156.laz,7.779586338, 20260303-153740.149616,1.77252E+18,,-0.08,0.11,0.29,10.07612603,10.36744862,10.69220925,10.24827129,10.17938208,10.04986565,10.41802048,10.13455887,-10.36744862,-10.69220925,-10.17938208,10.41802048,-594.29,6284.5,-2017.37
153740.2715,7.843719815, 20260303-15:37:40-250000,35.93917023,126.5488734,6.7749,4,1.3,371391957.5,159294217.4,264.3,7.880940133,-1042.24,10731.31,-1969.03,4.516,-34.11,6.325,95.716,5.5,-0.058,0.891,7.894937949,799.5,3.05,0,144,2.4,2.4,280.8,35.4,98.4,2.4,1.2,4,2,3,4,5,3,4,3,7.884232853, pc_20260303_153740_256.laz,7.880055152, 20260303-153740.250088,1.77252E+18,,0,0.09,0.14,10.07105475,10.35039013,10.67339564,10.25222585,10.187583,10.03448365,10.41309427,10.14935869,-10.35039013,-10.67339564,-10.187583,10.41309427,-594.29,6284.5,-2017.37
153740.3716,7.943634552, 20260303-15:37:40-350000,35.93917024,126.5488734,6.7741,4,1.4,371391958.2,159294217.2,264.312,7.980979575,-1042.37,10731.3,-1969.38,4.509,-34.106,6.319,95.717,5.5,-0.057,0.886,7.99469695,801.5,3.05,0,144,2.4,1.8,280.8,35.4,98.4,2.4,1.8,2,3,4,3,4,7,7,4,7.985333451, pc_20260303_153740_358.laz,7.980749381, 20260303-153740.350757,1.77252E+18,,-0.13,-0.01,-0.35,10.04491752,10.31085875,10.74922653,10.27653005,10.21472239,9.985141896,10.39973141,10.17054932,-10.31085875,-10.74922653,-10.21472239,10.39973141,-594.29,6284.5,-2017.37
153740.4715,8.043735896, 20260303-15:37:40-450000,35.93917025,126.5488734,6.7739,4,1.5,371391958.8,159294216.8,264.29,8.080885548,-1042.44,10731.47,-1968.51,4.515,-34.108,6.326,95.717,5.5,-0.057,0.889,8.095332073,801.5,3.1,0,144,2.4,1.8,280.2,35.4,98.4,2.4,1.8,2,11,4,4,3,1,3,4,8.084145965, pc_20260303_153740_456.laz,8.082998986, 20260303-153740.453005,1.77252E+18,,-0.07,0.17,0.87,10.11185041,10.32934716,10.74246733,10.26608798,10.20116857,10.01443541,10.40785135,10.11810883,-10.32934716,-10.74246733,-10.20116857,10.40785135,-594.29,6284.5,-2017.37
153740.5715,8.143763762, 20260303-15:37:40-550000,35.93917026,126.5488734,6.7746,4,1.5,371391959.7,159294216.9,264.283,8.180905242,-1042.49,10731.45,-1968.74,4.516,-34.106,6.325,95.718,5.5,-0.058,0.891,8.19460389,800.5,2.9,0,144,2.4,2.4,280.2,35.4,98.4,2.4,1.8,4,4,0,5,4,4,2,4,8.184148362, pc_20260303_153740_556.laz,8.17876615, 20260303-153740.548811,1.77252E+18,,-0.05,-0.02,-0.23,10.05287073,10.35341379,10.682342,10.24347847,10.18558077,10.03853477,10.41531016,10.16000576,-10.35341379,-10.682342,-10.18558077,10.41531016,-594.29,6284.5,-2017.37
153740.6718,8.243851323, 20260303-15:37:40-650000,35.93917026,126.5488734,6.7753,4,1.6,371391960.1,159294217.1,264.257,8.280908095,-1042.54,10731.58,-1968.68,4.51,-34.1,6.32,95.718,5.5,-0.057,0.887,8.294966588,800.5,3.05,0,144,2.4,2.4,280.2,35.4,97.8,2.4,1.8,3,1,6,5,5,3,7,4,8.283763665, pc_20260303_153740_656.laz,8.277079985, 20260303-153740.647086,1.77252E+18,,-0.05,0.13,0.06,10.06108452,10.31945011,10.71127235,10.28587272,10.21612693,9.996179913,10.40207758,10.15115849,-10.31945011,-10.71127235,-10.21612693,10.40207758,-594.29,6284.5,-2017.37
153740.7722,8.343786228, 20260303-15:37:40-750000,35.93917026,126.5488734,6.7747,4,0.8,371391960.6,159294217.1,264.28,8.380925288,-1042.41,10731.7,-1968.67,4.513,-34.098,6.327,95.717,5.5,-0.056,0.891,8.394505582,801.5,3,0,144,2.4,2.4,280.2,35.4,97.8,2.4,1.8,2,9,4,3,3,6,6,2,8.383943853, pc_20260303_153740_756.laz,8.378138354, 20260303-153740.748147,1.77252E+18,,0.13,0.12,0.01,10.16350499,10.29250497,10.68720554,10.23380869,10.19447229,10.05723296,10.39913475,10.12851799,-10.29250497,-10.68720554,-10.19447229,10.39913475,-594.29,6284.5,-2017.37
153740.8715,8.444199314, 20260303-15:37:40-850000,35.93917027,126.5488734,6.7744,4,0.9,371391961.4,159294217.2,264.284,8.480888726,-1042.04,10731.77,-1968.93,4.512,-34.096,6.326,95.715,5.5,-0.057,0.893,8.495760308,800,2.95,0,144,2.4,1.8,280.2,34.8,97.8,2.4,1.8,3,1,5,5,3,1,4,4,8.483969336, pc_20260303_153740_856.laz,8.479128336, 20260303-153740.849167,1.77252E+18,,0.37,0.07,-0.26,10.16246158,10.29341091,10.7144959,10.2061409,10.1899592,10.06352083,10.39850653,10.15420902,-10.29341091,-10.7144959,-10.1899592,10.39850653,-594.29,6284.5,-2017.37
153740.9715,8.544147321, 20260303-15:37:40-950000,35.93917028,126.5488734,6.7763,4,0.9,371391961.9,159294217.8,264.288,8.580914888,-1042,10731.92,-1968.93,4.504,-34.09,6.327,95.715,5.5,-0.057,0.888,8.595030429,801,3,0,144,2.4,2.4,280.2,35.4,97.8,2.4,1.8,1,3,4,1,2,3,4,6,8.584459149, pc_20260303_153740_956.laz,8.580820804, 20260303-153740.950812,1.77252E+18,,0.04,0.15,0,10.07735712,10.31509064,10.72934287,10.27348075,10.21373906,10.00639834,10.40099761,10.15143612,-10.31509064,-10.72934287,-10.21373906,10.40099761,-594.29,6284.5,-2017.37
153741.0717,8.64508203, 20260303-15:37:41-050000,35.93917028,126.5488734,6.7748,4,1,371391962.5,159294217.8,264.298,8.680898874,-1042.06,10731.91,-1968.6,4.509,-34.093,6.329,95.715,5.5,-0.059,0.89,8.695127968,800.5,3,0,144,2.4,2.4,280.2,34.8,97.8,2.4,1.2,2,7,4,5,5,4,2,3,8.684078434, pc_20260303_153741_056.laz,8.681788802, 20260303-153741.051783,1.77252E+18,,-0.06,-0.01,0.33,10.03029036,10.36243888,10.78097969,10.23565705,10.18660313,10.00286018,10.41613146,10.16690092,-10.36243888,-10.78097969,-10.18660313,10.41613146,-594.29,6284.5,-2017.37
153741.1715,8.744123281, 20260303-15:37:41-150000,35.93917028,126.5488735,6.774,4,1.1,371391962.6,159294218.7,264.297,8.780964236,-1041.99,10731.96,-1969.07,4.508,-34.088,6.328,95.715,5.5,-0.059,0.893,8.795210882,800,3,0,144,2.4,2.4,279.6,35.4,97.8,2.4,1.8,4,4,1,2,6,5,6,5,8.784729608, pc_20260303_153741_158.laz,8.777780741, 20260303-153741.147815,1.77252E+18,,0.07,0.05,-0.47,10.01975896,10.37564624,10.67349758,10.22695183,10.17337528,10.04933783,10.41934989,10.17533751,-10.37564624,-10.67349758,-10.17337528,10.41934989,-594.29,6284.5,-2017.37
153741.2715,8.843913625, 20260303-15:37:41-250000,35.93917028,126.5488735,6.7739,4,1.3,371391961.9,159294218.4,264.286,8.880942132,-1042.24,10731.98,-1969.19,4.502,-34.087,6.334,95.716,5.5,-0.057,0.889,8.894327046,800.5,3.05,0,144,2.4,2.4,279.6,34.8,97.8,2.4,1.8,5,1,3,3,0,2,2,7,8.884367454, pc_20260303_153741_257.laz,8.880114541, 20260303-153741.250160,1.77252E+18,,-0.25,0.02,-0.12,10.05186355,10.34846376,10.62227081,10.28046691,10.19704598,10.03197524,10.41585274,10.14061328,-10.34846376,-10.62227081,-10.19704598,10.41585274,-594.29,6284.5,-2017.37
153741.3715,8.943834197, 20260303-15:37:41-350000,35.93917028,126.5488735,6.7725,4,1.4,371391961.9,159294218.8,264.288,8.980925527,-1042.32,10732.1,-1969.22,4.504,-34.082,6.334,95.716,5.5,-0.058,0.893,8.994712881,801,3.05,0,144,2.4,2.4,279.6,34.8,97.8,2.4,1.8,2,7,4,3,1,2,1,3,8.98399335, pc_20260303_153741_356.laz,8.981662428, 20260303-153741.351707,1.77252E+18,,-0.08,0.12,-0.03,10.05943823,10.37830381,10.63580437,10.24749927,10.17485994,10.06715155,10.42132382,10.13693056,-10.37830381,-10.63580437,-10.17485994,10.42132382,-594.29,6284.5,-2017.37
153741.4715,9.043661623, 20260303-15:37:41-450000,35.93917028,126.5488735,6.7723,4,1.5,371391961.9,159294219.4,264.305,9.080943467,-1042.33,10732.27,-1969.27,4.501,-34.075,6.33,95.716,5.5,-0.058,0.893,9.095128062,800,3,0,143.4,2.4,2.4,279.6,34.8,97.8,2.4,1.8,5,2,1,3,1,3,4,2,9.0839658, pc_20260303_153741_456.laz,9.079609372, 20260303-153741.449644,1.77252E+18,,-0.01,0.17,-0.05,10.06164731,10.37321079,10.61807667,10.25007297,10.17789892,10.06575531,10.41871721,10.13952485,-10.37321079,-10.61807667,-10.17789892,10.41871721,-594.29,6284.5,-2017.37
153741.5716,9.144525831, 20260303-15:37:41-550000,35.93917028,126.5488735,6.7738,4,1.5,371391961.9,159294219.1,264.296,9.180943238,-1042.1,10732.38,-1969.29,4.496,-34.072,6.333,95.715,5.5,-0.06,0.889,9.194604941,800.5,3.05,0,143.4,2.4,1.8,279.6,34.8,97.8,2.4,1.2,4,4,4,5,5,0,5,4,9.184395667, pc_20260303_153741_557.laz,9.181846369, 20260303-153741.551858,1.77252E+18,,0.23,0.11,-0.02,9.980490396,10.34750583,10.89394913,10.22824094,10.21739272,9.968545271,10.40758458,10.19720818,-10.34750583,-10.89394913,-10.21739272,10.40758458,-594.29,6284.5,-2017.37
153741.6715,9.243813618, 20260303-15:37:41-650000,35.93917027,126.5488735,6.7744,4,1.6,371391960.8,159294220,264.316,9.280891701,-1041.87,10732.49,-1969.69,4.494,-34.064,6.327,95.714,5.5,-0.06,0.892,9.294992856,801,3.15,0,143.4,2.4,2.4,279.6,34.8,97.8,2.4,1.8,1,4,4,3,4,2,6,2,9.284388327, pc_20260303_153741_656.laz,9.277428823, 20260303-153741.647465,1.77252E+18,,0.23,0.11,-0.4,9.986365027,10.36807016,10.81433518,10.21037739,10.1881862,10.01126813,10.4147982,10.19881881,-10.36807016,-10.81433518,-10.1881862,10.4147982,-594.29,6284.5,-2017.37
153741.7716,9.343415489, 20260303-15:37:41-750000,35.93917027,126.5488735,6.7718,4,1.8,371391961.3,159294219.5,264.287,9.380938258,-1041.89,10732.6,-1969.13,4.493,-34.065,6.33,95.714,5.5,-0.059,0.888,9.39447348,801,3,0,143.4,2.4,2.4,279,34.8,97.8,2.4,1.8,5,4,4,4,4,3,1,3,9.383997469, pc_20260303_153741_756.laz,9.380592921, 20260303-153741.750636,1.77252E+18,,-0.02,0.11,0.56,10.0194935,10.35024616,10.84523572,10.24838638,10.2034232,9.971027837,10.40924346,10.16919509,-10.35024616,-10.84523572,-10.2034232,10.40924346,-594.29,6284.5,-2017.37
153741.8717,9.443967016, 20260303-15:37:41-850000,35.93917027,126.5488735,6.7729,4,1.9,371391960.8,159294219.8,264.306,9.480921961,-1042.05,10732.54,-1969.25,4.493,-34.066,6.332,95.715,5.5,-0.057,0.889,9.495173309,801,3.1,0,144,2.4,2.4,279,34.8,97.8,2.4,1.8,3,1,4,3,3,4,1,7,9.483812041, pc_20260303_153741_856.laz,9.479341426, 20260303-153741.849349,1.77252E+18,,-0.16,-0.06,-0.12,10.07342181,10.32869625,10.69246036,10.25691393,10.19957886,10.02516593,10.41188786,10.14954614,-10.32869625,-10.69246036,-10.19957886,10.41188786,-594.29,6284.5,-2017.37
153741.9715,9.543291113, 20260303-15:37:41-950000,35.93917026,126.5488735,6.7732,4,2,371391960.2,159294220.5,264.302,9.581007392,-1041.78,10732.74,-1968.75,4.498,-34.064,6.335,95.713,5.5,-0.058,0.892,9.594901812,801.5,3,0,144,2.4,2.4,279,34.8,97.8,2.4,1.8,4,4,7,3,6,2,6,3,9.585418443, pc_20260303_153741_957.laz,9.579350066, 20260303-153741.949343,1.77252E+18,,0.27,0.2,0.5,10.11810813,10.32823379,10.81118152,10.22059719,10.19182147,10.03138513,10.40429659,10.14381688,-10.32823379,-10.81118152,-10.19182147,10.40429659,-594.29,6284.5,-2017.37
153742.0715,9.644731825, 20260303-15:37:42-050000,35.93917027,126.5488735,6.7728,4,2,371391961,159294220.3,264.328,9.680896125,-1041.82,10732.7,-1968.66,4.499,-34.065,6.332,95.713,5.5,-0.058,0.891,9.695123803,800.5,2.9,0,144,2.4,2.4,279,34.8,97.8,2.4,1.8,3,4,2,4,5,3,3,2,9.683756242, pc_20260303_153742_056.laz,9.680059591, 20260303-153742.050101,1.77252E+18,,-0.04,-0.04,0.09,10.06970175,10.34693114,10.72558997,10.23278495,10.18581346,10.03201171,10.41536362,10.15453271,-10.34693114,-10.72558997,-10.18581346,10.41536362,-594.29,6284.5,-2017.37
153742.1716,9.743640519, 20260303-15:37:42-150000,35.93917027,126.5488735,6.7726,4,2.2,371391961.5,159294219.7,264.321,9.780911494,-1041.69,10732.83,-1968.4,4.5,-34.062,6.33,95.713,5.5,-0.057,0.892,9.795190396,801,3,0,144,2.4,2.4,279,34.8,97.8,2.4,1.8,3,4,1,7,6,4,5,5,9.78389439, pc_20260303_153742_156.laz,9.779876513, 20260303-153742.149900,1.77252E+18,,0.13,0.13,0.26,10.12967881,10.3244443,10.70895707,10.2315173,10.18991924,10.05328672,10.40770644,10.13085893,-10.3244443,-10.70895707,-10.18991924,10.40770644,-594.29,6284.5,-2017.37
153742.2715,9.843934695, 20260303-15:37:42-250000,35.93917027,126.5488735,6.7735,4,1.3,371391961.5,159294220.2,264.273,9.880896395,-1041.72,10732.9,-1968.26,4.5,-34.061,6.332,95.713,5.5,-0.059,0.893,9.894803952,801,2.95,0,144,2.4,2.4,279,34.8,97.8,2.4,1.8,4,1,3,2,4,6,3,4,9.883727894, pc_20260303_153742_256.laz,9.879369489, 20260303-153742.249407,1.77252E+18,,-0.03,0.07,0.14,10.0298409,10.38890591,10.71550471,10.22836892,10.17030792,10.04623575,10.42365317,10.15339115,-10.38890591,-10.71550471,-10.17030792,10.42365317,-594.29,6284.5,-2017.37
153742.3716,9.943110002, 20260303-15:37:42-350000,35.93917027,126.5488735,6.7731,4,1.4,371391961.2,159294219.8,264.289,9.980997175,-1042.02,10732.99,-1968.48,4.497,-34.054,6.33,95.714,5.5,-0.058,0.893,9.99482888,800,2.95,0,143.4,2.4,2.4,279,34.8,97.2,2.4,1.8,4,3,2,5,2,1,3,5,9.985242086, pc_20260303_153742_357.laz,9.980658456, 20260303-153742.350645,1.77252E+18,,-0.3,0.09,-0.22,10.00928793,10.41168219,10.52731347,10.26938128,10.16826544,10.07892106,10.43224687,10.13181107,-10.41168219,-10.52731347,-10.16826544,10.43224687,-594.29,6284.5,-2017.37
153742.4716,10.04359881, 20260303-15:37:42-450000,35.93917027,126.5488735,6.7708,4,1.5,371391961.7,159294220.7,264.289,10.08089808,-1042.2,10733.11,-1968.36,4.495,-34.05,6.33,95.715,5.5,-0.057,0.893,10.09513551,800.5,3.05,0,143.4,2.4,2.4,279,34.8,97.2,2.4,1.8,2,0,0,1,6,3,8,5,10.08390225, pc_20260303_153742_456.laz,10.07957189, 20260303-153742.449617,1.77252E+18,,-0.18,0.12,0.12,10.08243089,10.37456525,10.563493,10.25874724,10.17504118,10.08335509,10.42396967,10.11319362,-10.37456525,-10.563493,-10.17504118,10.42396967,-594.29,6284.5,-2017.37
153742.5715,10.14367479, 20260303-15:37:42-550000,35.93917028,126.5488735,6.7706,4,1.5,371391962.4,159294220.6,264.278,10.18090841,-1041.95,10733.15,-1968.31,4.501,-34.05,6.33,95.714,5.5,-0.06,0.898,10.19491227,801.5,3,0,143.4,2.4,2.4,278.4,34.8,97.2,2.4,1.8,2,2,1,3,5,2,0,5,10.18390369, pc_20260303_153742_556.laz,10.17994077, 20260303-153742.549931,1.77252E+18,,0.25,0.04,0.05,10.06162189,10.39988836,10.75692767,10.17106583,10.13532767,10.08355863,10.43075729,10.16360245,-10.39988836,-10.75692767,-10.13532767,10.43075729,-594.29,6284.5,-2017.37
153742.6716,10.24322062, 20260303-15:37:42-650000,35.93917028,126.5488735,6.7702,4,1.6,371391962.8,159294220.3,264.29,10.28090882,-1041.91,10733.25,-1968.18,4.502,-34.047,6.328,95.714,5.5,-0.059,0.899,10.29490722,799.5,3.05,0,143.4,2.4,2.4,278.4,34.8,97.2,2.4,1.8,2,5,7,2,4,6,7,2,10.28368621, pc_20260303_153742_656.laz,10.27898535, 20260303-153742.648991,1.77252E+18,,0.04,0.1,0.13,10.07652234,10.42051604,10.56412713,10.20665583,10.12800765,10.12379418,10.43953545,10.1277115,-10.42051604,-10.56412713,-10.12800765,10.43953545,-594.29,6284.5,-2017.37
153742.7716,10.34347564, 20260303-15:37:42-750000,35.93917028,126.5488735,6.769,4,1.8,371391962.8,159294220.3,264.283,10.38095029,-1041.82,10733.33,-1967.76,4.498,-34.048,6.332,95.713,5.5,-0.058,0.894,10.39510274,801.5,3.05,0,143.4,2.4,2.4,278.4,34.8,97.2,2.4,1.8,3,2,4,4,1,0,3,3,10.38405877, pc_20260303_153742_756.laz,10.38080563, 20260303-153742.750843,1.77252E+18,,0.09,0.08,0.42,10.10671285,10.36057641,10.7330363,10.21334547,10.17216113,10.06612828,10.41810591,10.13086173,-10.36057641,-10.7330363,-10.17216113,10.41810591,-594.29,6284.5,-2017.37
153742.8715,10.44387726, 20260303-15:37:42-850000,35.93917028,126.5488735,6.7693,4,1.9,371391962.6,159294219.5,264.263,10.48089974,-1042.09,10733.43,-1968,4.498,-34.042,6.33,95.715,5.5,-0.059,0.897,10.4948875,801.5,3,0,144,2.4,2.4,278.4,34.8,97.2,2.4,1.8,5,1,2,5,2,3,7,3,10.48395627, pc_20260303_153742_857.laz,10.47808922, 20260303-153742.848127,1.77252E+18,,-0.27,0.1,-0.24,9.991679575,10.45490347,10.53115655,10.23911409,10.13620007,10.11654588,10.44613196,10.12778407,-10.45490347,-10.53115655,-10.13620007,10.44613196,-594.29,6284.5,-2017.37
153742.9715,10.54394667, 20260303-15:37:42-950000,35.93917029,126.5488735,6.7691,4,2,371391963,159294219.5,264.272,10.58096135,-1042.06,10733.57,-1967.81,4.493,-34.038,6.33,95.715,5.5,-0.06,0.892,10.59478136,800.5,2.95,0,144,2.4,1.8,278.4,34.8,97.2,2.4,1.8,2,5,5,1,5,1,6,3,10.58393524, pc_20260303_153742_956.laz,10.58094304, 20260303-153742.950986,1.77252E+18,,0.03,0.14,0.19,9.975789205,10.40161823,10.76367246,10.23346654,10.17154355,10.01659662,10.42219536,10.17041957,-10.40161823,-10.76367246,-10.17154355,10.42219536,-594.29,6284.5,-2017.37
153743.0716,10.64485411, 20260303-15:37:43-050000,35.93917029,126.5488735,6.7699,4,2,371391963.7,159294218.4,264.285,10.68097258,-1041.8,10733.59,-1967.63,4.497,-34.039,6.33,95.713,5.5,-0.059,0.894,10.69675799,800.5,3.05,0,144,2.4,2.4,278.4,34.8,97.2,2.4,1.8,4,4,2,4,5,5,1,3,10.68404442, pc_20260303_153743_056.laz,10.67946146, 20260303-153743.049474,1.77252E+18,,0.26,0.02,0.18,10.0799948,10.35417437,10.79501064,10.192023,10.17051997,10.0452817,10.41536082,10.1647712,-10.35417437,-10.79501064,-10.17051997,10.41536082,-594.29,6284.5,-2017.37
153743.1714,10.74387433, 20260303-15:37:43-150000,35.93917029,126.5488735,6.7693,4,1.1,371391963.7,159294218.7,264.278,10.78106426,-1041.54,10733.62,-1967.49,4.501,-34.04,6.33,95.712,5.5,-0.06,0.898,10.79425638,802,3,0,144,2.4,2.4,278.4,34.8,97.2,2.4,1.8,5,4,2,4,2,2,4,6,10.78454115, pc_20260303_153743_157.laz,10.77882473, 20260303-153743.148865,1.77252E+18,,0.26,0.03,0.14,10.06259336,10.40128805,10.7831641,10.16810942,10.1353766,10.08169977,10.43096552,10.16140461,-10.40128805,-10.7831641,-10.1353766,10.43096552,-594.29,6284.5,-2017.37
153743.2716,10.84367819, 20260303-15:37:43-250000,35.93917029,126.5488735,6.7685,4,1.3,371391963.1,159294218.6,264.275,10.88092981,-1041.54,10733.67,-1967.45,4.501,-34.04,6.335,95.711,5.5,-0.057,0.898,10.89472471,800,2.95,0,144,2.4,2.4,278.4,34.8,97.2,2.4,1.8,2,12,4,7,1,3,4,3,10.88390214, pc_20260303_153743_256.laz,10.87754203, 20260303-153743.247519,1.77252E+18,,0,0.05,0.04,10.15140329,10.3688198,10.53152515,10.1968959,10.14634515,10.14385551,10.42610107,10.10297127,-10.3688198,-10.53152515,-10.14634515,10.42610107,-594.29,6284.5,-2017.37
153743.3715,10.94369, 20260303-15:37:43-350000,35.93917028,126.5488735,6.7684,4,1.4,371391962.8,159294218.3,264.291,10.98095154,-1041.52,10733.65,-1967.27,4.502,-34.042,6.336,95.712,5.5,-0.06,0.897,10.99492171,800.5,2.95,0,144,2.4,2.4,277.8,34.8,97.2,2.4,1.8,4,2,6,3,4,0,1,3,10.98438594, pc_20260303_153743_356.laz,10.97988345, 20260303-153743.349894,1.77252E+18,,0.02,-0.02,0.18,10.02444775,10.4226032,10.6934813,10.19412242,10.13323066,10.07816709,10.43925341,10.15562597,-10.4226032,-10.6934813,-10.13323066,10.43925341,-594.29,6284.5,-2017.37
153743.4715,11.04357825, 20260303-15:37:43-450000,35.93917029,126.5488735,6.7673,4,1.5,371391963.2,159294218.7,264.269,11.08093382,-1041.78,10733.71,-1966.94,4.504,-34.041,6.336,95.713,5.5,-0.06,0.898,11.09486091,801.5,3.05,0,144,2.4,2.4,277.8,34.8,97.2,2.4,1.8,4,0,2,7,6,6,5,3,11.08374003, pc_20260303_153743_456.laz,11.07794086, 20260303-153743.447973,1.77252E+18,,-0.26,0.06,0.33,9.987807628,10.47547841,10.59729923,10.22295662,10.11856904,10.10392089,10.45387063,10.12772383,-10.47547841,-10.59729923,-10.11856904,10.45387063,-594.29,6284.5,-2017.37
153743.5717,11.14360123, 20260303-15:37:43-550000,35.93917029,126.5488734,6.766,4,1.5,371391963,159294218.1,264.272,11.18100509,-1041.69,10733.76,-1966.99,4.504,-34.038,6.332,95.713,5.5,-0.061,0.899,11.19489278,800,3,0,144,2.4,2.4,277.8,34.8,97.2,2.4,1.8,2,10,2,3,2,2,1,1,11.18516781, pc_20260303_153743_558.laz,11.17800749, 20260303-153743.548011,1.77252E+18,,0.09,0.05,-0.05,9.991836177,10.4565791,10.65701623,10.2002212,10.10896769,10.0964115,10.44222739,10.15623701,-10.4565791,-10.65701623,-10.10896769,10.44222739,-594.29,6284.5,-2017.37
153743.6715,11.24437277, 20260303-15:37:43-650000,35.93917028,126.5488734,6.7661,4,1.6,371391962.6,159294218,264.272,11.28088622,-1041.51,10733.87,-1966.8,4.506,-34.035,6.329,95.712,5.5,-0.062,0.9,11.29504552,801,3.05,0,144,2.4,2.4,277.8,34.8,97.2,2.4,1.8,4,2,5,3,2,0,5,4,11.28360609, pc_20260303_153743_656.laz,11.27944827, 20260303-153743.649496,1.77252E+18,,0.18,0.11,0.19,10.01033872,10.46355991,10.7601334,10.20895616,10.11436671,10.09226692,10.4376375,10.1520441,-10.46355991,-10.7601334,-10.11436671,10.4376375,-594.29,6284.5,-2017.37
153743.7715,11.34347572, 20260303-15:37:43-750000,35.93917029,126.5488734,6.7661,4,1.8,371391963,159294217.4,264.291,11.3809043,-1041.54,10733.99,-1966.59,4.509,-34.033,6.332,95.712,5.5,-0.061,0.904,11.39438524,801.5,2.95,0,144,2.4,2.4,277.8,34.8,97.2,2.4,1.8,3,2,3,3,2,7,7,7,11.3843299, pc_20260303_153743_756.laz,11.37991984, 20260303-153743.749948,1.77252E+18,,-0.03,0.12,0.21,10.06193269,10.48012003,10.6215612,10.20651881,10.112942,10.14980743,10.45811111,10.13201587,-10.48012003,-10.6215612,10.14980743,10.45811111,-594.29,6284.5,-2017.37
153743.8716,11.44342325, 20260303-15:37:43-850000,35.93917029,126.5488734,6.7661,4,1.9,371391963.3,159294217.7,264.287,11.48089141,-1041.4,10734.09,-1966.61,4.51,-34.03,6.333,95.711,5.5,-0.063,0.907,11.49501445,800,2.95,0,143.4,2.4,2.4,277.8,34.8,97.2,2.4,1.8,4,9,0,2,6,3,2,3,11.48377338, pc_20260303_153743_856.laz,11.47941908, 20260303-153743.849424,1.77252E+18,,0.14,0.1,-0.02,10.10312809,10.4813808,10.71800167,10.22533459,10.11815492,10.15577203,10.45138764,10.15022644,-10.4813808,-10.71800167,10.15577203,10.45138764,-594.29,6284.5,-2017.37
153743.9715,11.54341126, 20260303-15:37:43-950000,35.93917028,126.5488734,6.765,4,2,371391962.2,159294217.2,264.274,11.58109078,-1041.5,10734.25,-1966.31,4.508,-34.027,6.336,95.712,5.5,-0.063,0.905,11.59570864,800.5,3.05,0,143.4,2.4,2.4,277.8,34.8,97.2,2.4,1.8,4,1,6,2,6,5,8,3,11.58484493, pc_20260303_153743_957.laz,11.58050763, 20260303-153743.950547,1.77252E+18,,-0.1,0.16,0.3,10.052256,10.51104397,10.67927207,10.2628757,10.12867107,10.14270905,10.4569537,10.13218413,-10.51104397,-10.67927207,10.14270905,10.4569537,-594.29,6284.5,-2017.37
153744.0715,11.644776, 20260303-15:37:44-050000,35.93917028,126.5488734,6.7638,4,2,371391962.2,159294216.7,264.284,11.68091836,-1041.68,10734.2,-1966.27,4.511,-34.028,6.334,95.713,5.5,-0.063,0.907,11.69608673,801.5,3,0,144,2.4,2.4,277.8,34.8,97.2,2.4,1.8,4,2,6,6,1,1,3,3,11.68437271, pc_20260303_153744_057.laz,11.68074543, 20260303-153744.050734,1.77252E+18,,-0.18,-0.05,0.04,10.08455686,10.5073144,10.70899121,10.23499391,10.11920212,10.16285591,10.46246152,10.14079603,-10.5073144,-10.70899121,10.16285591,10.46246152,-594.29,6284.5,-2017.37
153744.1715,11.74378138, 20260303-15:37:44-150000,35.93917027,126.5488734,6.7638,4,1.1,371391961.7,159294216.6,264.291,11.78092707,-1041.64,10734.26,-1966.49,4.509,-34.022,6.329,95.712,5.5,-0.063,0.908,11.79470247,800,3,0,144,2.4,2.4,277.8,34.8,97.2,2.4,1.8,4,8,3,4,3,5,6,3,11.78453079, pc_20260303_153744_157.laz,11.78030801, 20260303-153744.150263,1.77252E+18,,0.04,0.06,-0.22,10.09772619,10.4922585,10.68612277,10.22387685,10.11265403,10.16899441,10.45636503,10.15068554,-10.4922585,-10.68612277,10.16899441,10.45636503,-594.29,6284.5,-2017.37
153744.2715,11.84380119, 20260303-15:37:44-250000,35.93917028,126.5488734,6.7648,4,1.3,371391962,159294217.5,264.291,11.88092641,-1041.52,10734.37,-1966.32,4.508,-34.02,6.33,95.711,5.5,-0.061,0.907,11.89590286,800.5,3.05,0,144,2.4,2.4,277.2,34.8,97.2,2.4,1.8,4,3,3,1,7,3,2,3,11.88397734, pc_20260303_153744_256.laz,11.87977388, 20260303-153744.249794,1.77252E+18,,0.12,0.11,0.17,10.1357425,10.45635924,10.63753037,10.18350702,10.10869905,10.17497095,10.45575062,10.13394587,-10.45635924,-10.63753037,10.17497095,10.45575062,-594.29,6284.5,-2017.37
153744.3716,11.94361041, 20260303-15:37:44-350000,35.93917028,126.5488734,6.7647,4,1.4,371391961.9,159294217.2,264.311,11.98093051,-1041.58,10734.46,-1966.27,4.51,-34.017,6.331,95.712,5.5,-0.064,0.909,11.99566413,802,3,0,144,2.4,2.4,277.2,34.8,97.2,2.4,1.8,3,2,6,6,2,0,4,2,11.98353158, pc_20260303_153744_356.laz,11.98251156, 20260303-153744.352552,1.77252E+18,,-0.06,0.09,0.05,10.10573417,10.51522173,10.7874047,10.24368813,10.12063505,10.1588886,10.45434252,10.14310482,-10.51522173,-10.7874047,10.1588886,10.45434252,-594.29,6284.5,-2017.37
153744.4715,12.04331336, 20260303-15:37:44-450000,35.93917027,126.5488734,6.7655,4,1.5,371391961.3,159294217,264.305,12.08093738,-1041.83,10734.58,-1965.9,4.511,-34.014,6.33,95.713,5.5,-0.063,0.91,12.09507793,799.5,3,0,143.4,2.4,2.4,277.2,34.2,96.6,2.4,1.8,5,6,1,3,5,6,3,7,12.08478757, pc_20260303_153744_457.laz,12.07829725, 20260303-153744.448308,1.77252E+18,,-0.25,0.12,0.37,10.13378034,10.51798768,10.63743403,10.25649424,10.11670575,10.19028391,10.46649035,10.11662268,-10.51798768,-10.63743403,10.19028391,10.46649035,-594.29,6284.5,-2017.37
153744.5714,12.14431574, 20260303-15:37:44-550000,35.93917027,126.5488734,6.7676,4,1.5,371391961.1,159294217.3,264.274,12.18089458,-1041.87,10734.56,-1965.67,4.513,-34.016,6.328,95.714,5.5,-0.064,0.909,12.19518626,801,3.1,0,144,2.4,1.8,277.2,34.2,96.6,2.4,1.8,5,3,0,4,3,2,4,2,12.18394751, pc_20260303_153744_556.laz,12.18347421, 20260303-153744.553512,1.77252E+18,,-0.04,-0.02,0.23,10.13279685,10.50016819,10.80539518,10.23340669,10.12083581,10.15618522,10.45381291,10.14376694,-10.50016819,-10.80539518,10.15618522,10.45381291,-594.29,6284.5,-2017.37
153744.6714,12.24410479, 20260303-15:37:44-650000,35.93917027,126.5488734,6.767,4,1.6,371391961.5,159294216.6,264.292,12.2809149,-1041.57,10734.62,-1966.12,4.509,-34.011,6.324,95.712,5.5,-0.065,0.91,12.2947874,801.5,3.05,0,143.4,2.4,2.4,277.2,34.2,96.6,2.4,1.8,3,2,6,5,5,2,6,4,12.28423824, pc_20260303_153744_656.laz,12.27774568, 20260303-153744.647772,1.77252E+18,,0.3,0.06,-0.45,10.12334116,10.47501553,10.90910428,10.21299475,10.13063082,10.13657438,10.44486109,10.17897791,-10.47501553,-10.90910428,10.13657438,10.44486109,-594.29,6284.5,-2017.37
153744.7715,12.3442758, 20260303-15:37:44-750000,35.93917027,126.5488734,6.767,4,0.8,371391960.8,159294216.6,264.276,12.38117066,-1041.74,10734.69,-1966.44,4.505,-34.004,6.321,95.713,5.5,-0.064,0.909,12.39492036,800.5,3.05,0,143.4,2.4,2.4,277.2,34.2,96.6,2.4,1.8,4,3,4,3,4,5,1,4,12.38579459, pc_20260303_153744_758.laz,12.37964177, 20260303-153744.749671,1.77252E+18,,-0.17,0.07,-0.32,10.06526332,10.53070032,10.69024589,10.25257205,10.11414644,10.16644487,10.46048842,10.14925874,-10.53070032,-10.69024589,10.16644487,10.46048842,-594.29,6284.5,-2017.37
153744.8714,12.44424915, 20260303-15:37:44-850000,35.93917027,126.5488734,6.7684,4,0.9,371391960.8,159294216.9,264.278,12.48116803,-1041.73,10734.75,-1966.56,4.501,-34.002,6.325,95.713,5.5,-0.065,0.908,12.49513185,801.5,3.05,0,143.4,2.4,2.4,277.2,34.2,96.6,2.4,1.8,3,2,1,3,4,1,2,3,12.48609994, pc_20260303_153744_859.laz,12.48055607, 20260303-153744.850466,1.77252E+18,,0.01,0.06,-0.12,10.07893267,10.50492344,10.86088874,10.24614401,10.13559341,10.12904292,10.45168234,10.16123692,-10.50492344,-10.86088874,-10.13559341,10.45168234,-594.29,6284.5,-2017.37
153744.9716,12.54420051, 20260303-15:37:44-950000,35.93917026,126.5488734,6.768,4,0.9,371391960.6,159294217.1,264.278,12.58104607,-1041.38,10734.89,-1966.37,4.497,-34,6.325,95.711,5.5,-0.065,0.904,12.59488372,801.5,3.05,0,143.4,2.4,2.4,276.6,34.2,96.6,2.4,1.8,2,2,4,1,3,3,5,1,12.58558176, pc_20260303_153744_958.laz,12.57825943, 20260303-153744.948242,1.77252E+18,,0.35,0.14,0.19,10.05508943,10.45924268,11.00543106,10.23441311,10.17022248,10.07841066,10.4395095,10.16767233,-10.45924268,-11.00543106,-10.17022248,10.4395095,-594.29,6284.5,-2017.37
153745.0715,12.64469243, 20260303-15:37:45-050000,35.93917026,126.5488734,6.7699,4,1,371391960.5,159294216.6,264.299,12.68103891,-1040.9,10734.88,-1966.4,4.5,-34.002,6.326,95.709,5.5,-0.068,0.906,12.69431666,800.5,2.95,0,143.4,2.4,2.4,276.6,34.2,96.6,2.4,1.8,4,0,2,4,6,4,6,7,12.68491696, pc_20260303_153745_057.laz,12.67936029, 20260303-153745.049383,1.77252E+18,,0.48,-0.01,-0.03,10.07421092,10.42389334,11.24280018,10.23489718,10.21748208,10.02413605,10.43644864,10.20405116,-10.42389334,-11.24280018,-10.21748208,10.43644864,-594.29,6284.5,-2017.37
153745.1714,12.74381763, 20260303-15:37:45-150000,35.93917026,126.5488734,6.7694,4,1.1,371391959.6,159294216,264.284,12.7810491,-1040.68,10734.9,-1966.62,4.495,-34,6.325,95.708,5.5,-0.069,0.903,12.79543506,801,3.1,0,143.4,2.4,2.4,276.6,34.2,96.6,2.4,1.8,4,5,0,1,3,4,4,3,12.78471428, pc_20260303_153745_157.laz,12.77862488, 20260303-153745.148628,1.77252E+18,,0.22,0.02,-0.22,9.966632974,10.45022573,11.25814537,10.27233167,10.23211503,9.987782087,10.44126471,10.20714998,-10.45022573,-11.25814537,-10.23211503,10.44126471,-594.29,6284.5,-2017.37
153745.2715,12.84365984, 20260303-15:37:45-250000,35.93917025,126.5488734,6.7704,4,1.3,371391959,159294216.4,264.291,12.88100344,-1040.6,10734.97,-1966.5,4.493,-34,6.33,95.708,5.5,-0.069,0.901,12.89478739,802,3,0,143.4,2.4,2.4,276.6,34.2,96.6,2.4,1.8,3,2,4,7,3,3,1,3,12.88443149, pc_20260303_153745_256.laz,12.87995388, 20260303-153745.249971,1.77252E+18,,0.08,0.07,0.12,9.932811259,10.46714668,11.28014915,10.29539118,10.23562414,9.973680612,10.44170484,10.19190637,-10.46714668,-11.28014915,-10.23562414,10.44170484,-594.29,6284.5,-2017.37
