ts(Global),ts(GNSS),ts(GNSS time),LLH(latitude),LLH(longitude),LLH(altitude),GNSS_qual,GNSS_age,TM(north),TM(east),Heading(GPS),ts(bucket - MC),bucket_x,bucket_y,bucket_z,slope_boom,slope_arm,slope_bucket,swing_angle,track_angle,body_roll,body_pitch,ts(Engine),rpm,fuel_consumption_rate,ts(pressure),p_boom_up,p_boom_down,p_arm_in,p_arm_out,p_bkt_in,p_bkt_out,p_swing_left,p_swing_right,p_pilot_boom_up,p_pilot_boom_down,p_pilot_arm_in,p_pilot_arm_out,p_pilot_bkt_in,p_pilot_bkt_out,p_pilot_swing_left,p_pilot_swing_right,ts(pc),laz_file_name,ts(svo_cam),ts_svo_cam,svo_timestamp
104755.5685,68.00399078, 20251113-10:47:55-550000,35.93919665,126.5488807,7.141,4,1.5,371394749.1,159295261.8,272.127,68.0264231,292.77,7363.73,-2302.64,23.814,-104.621,25.61,87.877,174.7,0.277,1.403,68.09960907,1570,7.35,0,132.6,4.2,12.6,62.4,6.6,51.6,2.4,1.8,3,171,1,4,3,0,143,0,68.03115061, pc_20251113_104755_492.laz,68.10273889, 20251113-104755.561493,1.763E+18
104755.6685,68.10430227, 20251113-10:47:55-650000,35.93919666,126.5488807,7.1436,4,1.6,371394750.6,159295262.2,272.129,68.12632899,293.55,7363.29,-2298.1,23.877,-104.64,25.586,87.873,174.7,0.268,1.422,68.19918202,1547,8.6,0,147,4.2,10.8,64.8,3.6,52.8,10.8,4.8,3,182,7,2,3,1,170,2,68.12940656, pc_20251113_104755_590.laz,68.20800663, 20251113-104755.666799,1.763E+18
104755.7683,68.20641437, 20251113-10:47:55-750000,35.93919667,126.5488807,7.1469,4,0.8,371394751.7,159295261.1,272.13,68.22634928,294,7367.48,-2280.24,24.045,-104.655,25.572,87.874,174.7,0.261,1.443,68.30205941,1534.5,13.5,0,154.2,4.8,9.6,66,2.4,52.8,50.4,7.2,5,191,3,1,1,1,173,6,68.22920347, pc_20251113_104755_690.laz,68.30301456, 20251113-104755.761796,1.763E+18
104755.8684,68.30645075, 20251113-10:47:55-850000,35.93919669,126.5488807,7.1468,4,0.9,371394754.8,159295259.1,272.128,68.32634004,289.45,7379.31,-2240.65,24.375,-104.662,25.566,87.914,174.7,0.261,1.459,68.39883394,1542,15.95,0,151.8,6,9.6,66,2.4,53.4,84,5.4,4,192,0,29,1,4,181,7,68.32927866, pc_20251113_104755_790.laz,68.40625503, 20251113-104755.864980,1.763E+18
104755.9689,68.40589989, 20251113-10:47:55-950000,35.93919669,126.5488807,7.1439,4,0.9,371394757.2,159295259.5,272.079,68.42640253,274.14,7398,-2181.56,24.783,-104.662,25.575,88.033,174.7,0.285,1.403,68.49947132,1543.5,16.9,0,142.8,6.6,10.2,66,3,53.4,103.2,4.2,4,191,8,78,2,2,189,8,68.4297479, pc_20251113_104755_891.laz,68.50488684, 20251113-104755.963607,1.763E+18
104756.0697,68.50646664, 20251113-10:47:56-050000,35.93919669,126.5488809,7.1421,4,1,371394760.7,159295262.2,271.956,68.52636514,254.66,7419.58,-2113.11,25.308,-104.654,25.583,88.189,174.9,0.295,1.394,68.59957781,1548,16.7,0,132.6,7.2,11.4,64.8,4.2,53.4,116.4,4.2,3,188,6,94,0,0,191,7,68.52954508, pc_20251113_104755_990.laz,68.60559789, 20251113-104756.064360,1.763E+18
104756.1688,68.60587276, 20251113-10:47:56-150000,35.93919672,126.548881,7.1399,4,1.1,371394768.9,159295261.4,271.728,68.62634828,224.48,7440.66,-2046.27,25.798,-104.642,25.593,88.428,175.1,0.299,1.365,68.69975564,1547,17.5,0,127.8,6.6,11.4,64.8,4.8,52.8,123.6,3.6,4,182,8,114,0,1,194,3,68.62945744, pc_20251113_104756_090.laz,68.70266775, 20251113-104756.161427,1.763E+18
104756.2687,68.70461678, 20251113-10:47:56-250000,35.93919677,126.5488811,7.1409,4,1.3,371394781.3,159295258.8,271.48,68.7263884,178.23,7458.84,-1987.58,26.246,-104.632,25.596,88.787,175.4,0.308,1.357,68.79927748,1550,18.4,0,129.6,6.6,13.8,76.2,4.8,52.8,135,3.6,4,170,0,125,0,0,195,0,68.73033959, pc_20251113_104756_191.laz,68.80472955, 20251113-104756.263516,1.763E+18
104756.3684,68.80408859, 20251113-10:47:56-350000,35.93919684,126.5488814,7.1414,4,1.4,371394797.2,159295259.5,271.135,68.82644427,122.43,7481.18,-1933.98,26.64,-104.535,25.594,89.218,175.8,0.314,1.355,68.89931437,1547,19.7,0,133.2,6.6,21.6,96,4.8,52.8,151.8,4.8,9,155,0,131,3,38,194,1,68.82924843, pc_20251113_104756_290.laz,68.9029329, 20251113-104756.361729,1.763E+18
104756.4684,68.90441704, 20251113-10:47:56-450000,35.93919692,126.5488816,7.1437,4,1.5,371394816.6,159295257.5,270.682,68.92638769,52.42,7513.37,-1879.34,27.033,-104.295,25.588,89.76,176.4,0.305,1.379,68.99915862,1547,23.65,0,134.4,7.2,28.8,112.8,4.8,53.4,167.4,5.4,11,127,6,143,6,78,192,1,68.92973147, pc_20251113_104756_391.laz,69.00198449, 20251113-104756.460751,1.763E+18
104756.5684,69.00385184, 20251113-10:47:56-550000,35.93919703,126.548882,7.1446,4,1.5,371394841.2,159295255.6,270.104,69.02637441,-35.98,7558.08,-1821.27,27.364,-103.876,25.588,90.431,177,0.318,1.363,69.09969075,1558,22.2,0,128.4,9.6,36,124.8,4.8,53.4,176.4,6,3,59,3,156,23,100,193,1,69.02964086, pc_20251113_104756_490.laz,69.10275122, 20251113-104756.561544,1.763E+18
104756.6683,69.1039683, 20251113-10:47:56-650000,35.93919716,126.5488824,7.1406,4,1.6,371394869.8,159295256.9,269.378,69.1264212,-142.16,7611.92,-1764.33,27.615,-103.297,25.59,91.227,177.8,0.331,1.322,69.19892833,1575,20.8,0,118.2,21,39,123,7.2,52.8,169.8,7.2,65,10,4,167,4,81,188,1,69.13050161, pc_20251113_104756_591.laz,69.19995491, 20251113-104756.658737,1.763E+18
104756.7684,69.20370324, 20251113-10:47:56-750000,35.9391973,126.5488829,7.1341,4,1.8,371394901.3,159295255.4,268.55,69.22635042,-266.36,7674.08,-1723.04,27.657,-102.518,25.622,92.139,178.7,0.359,1.255,69.29960946,1559.5,11.85,0,117,19.8,30.6,112.2,8.4,52.8,156,8.4,102,11,5,185,5,79,190,5,69.22926053, pc_20251113_104756_690.laz,69.30533552, 20251113-104756.764076,1.763E+18
104756.8682,69.30350869, 20251113-10:47:56-850000,35.93919747,126.5488834,7.1298,4,1.9,371394936.6,159295256,267.6,69.32633342,-407.01,7726.87,-1707.92,27.564,-101.722,25.593,93.163,179.7,0.375,1.252,69.3994604,1537.5,13.45,0,124.8,9.6,23.4,111.6,6.6,54,157.2,9.6,117,5,7,194,6,78,185,2,69.32933497, pc_20251113_104756_790.laz,69.40202784, 20251113-104756.860770,1.763E+18
104756.9685,69.40334381, 20251113-10:47:56-950000,35.93919772,126.5488839,7.1352,4,2,371394980.9,159295251.1,266.54,69.4263606,-557.74,7790.88,-1699.49,27.462,-100.699,25.584,94.252,-179.3,0.326,1.359,69.49936663,1532,21.8,0,136.8,6.6,22.8,119.4,4.8,55.2,164.4,11.4,130,3,2,203,4,76,186,1,69.42898689, pc_20251113_104756_890.laz,69.49975627, 20251113-104756.958536,1.763E+18
104757.0689,69.50672674, 20251113-10:47:57-050000,35.93919799,126.5488845,7.142,4,2,371395028.5,159295240.6,265.446,69.5263893,-728.86,7871.65,-1681.86,27.246,-99.367,25.511,95.443,-178.1,0.339,1.365,69.5998458,1539.5,29.95,0,145.2,5.4,25.2,136.2,4.8,59.4,171,14.4,138,5,2,229,4,60,179,0,69.52945596, pc_20251113_104756_990.laz,69.60166721, 20251113-104757.060422,1.763E+18
104757.1691,69.6065215, 20251113-10:47:57-150000,35.93919826,126.5488851,7.1396,4,2.2,371395076.2,159295234.1,264.291,69.62635237,-925.05,7972.94,-1643.58,27.029,-97.682,25.415,96.768,-176.8,0.354,1.33,69.69997124,1560,33.05,0,142.8,6,23.4,148.8,6,62.4,168,18,144,6,8,244,0,11,170,1,69.62913548, pc_20251113_104757_090.laz,69.7022404, 20251113-104757.160998,1.763E+18
104757.2682,69.70586829, 20251113-10:47:57-250000,35.93919856,126.5488858,7.1325,4,1.3,371395126.2,159295228.5,262.889,69.72637478,-1137.31,8102.77,-1581.25,26.827,-95.539,25.403,98.138,-175.4,0.365,1.31,69.7993261,1598,33.5,0,136.8,6,22.2,143.4,7.2,63.6,138.6,25.2,143,4,5,255,5,0,164,5,69.72926226, pc_20251113_104757_190.laz,69.80088706, 20251113-104757.259629,1.763E+18
104757.3683,69.80642557, 20251113-10:47:57-350000,35.93919889,126.5488865,7.1339,4,1.4,371395178.5,159295223.7,261.416,69.82637112,-1366.15,8259.54,-1502.04,26.53,-92.869,25.415,99.539,-174,0.372,1.282,69.89946901,1622,29.2,0,130.2,6,21.6,133.8,9,63.6,94.8,36.6,151,3,7,265,1,2,156,1,69.83025095, pc_20251113_104757_291.laz,69.90164003, 20251113-104757.360196,1.763E+18
104757.4684,69.9064327, 20251113-10:47:57-450000,35.93919923,126.5488872,7.1409,4,1.5,371395229.1,159295213.5,259.973,69.92636402,-1604.39,8410.47,-1421.53,26.204,-90.095,25.429,100.949,-172.6,0.358,1.299,69.99914523,1625.5,33.3,0,126.6,5.4,21.6,131.4,10.2,63.6,72,45,167,3,0,261,3,2,154,3,69.92927257, pc_20251113_104757_390.laz,70.0005721, 20251113-104757.459356,1.763E+18
104757.5686,70.00651353, 20251113-10:47:57-550000,35.93919958,126.5488878,7.1427,4,1.5,371395280.1,159295200.9,258.58,70.02637184,-1848.98,8549.56,-1346.78,25.718,-87.286,25.43,102.349,-171.2,0.384,1.253,70.09931755,1633.5,31.85,0,124.2,5.4,21.6,130.8,10.8,63.6,35.4,56.4,174,1,3,261,1,0,149,6,70.02941365, pc_20251113_104757_490.laz,70.10006562, 20251113-104757.558859,1.763E+18
104757.6684,70.10542149, 20251113-10:47:57-650000,35.93919995,126.5488885,7.1388,4,1.6,371395331.5,159295190.7,257.189,70.1263495,-2082.7,8678.93,-1279.41,25.192,-84.47,25.433,103.643,-169.9,0.365,1.26,70.19934058,1635.5,31.9,0,120,5.4,21.6,132,11.4,63,17.4,66,192,1,2,254,0,5,138,5,70.13027969, pc_20251113_104757_591.laz,70.20119335, 20251113-104757.659976,1.763E+18
104757.7687,70.20580801, 20251113-10:47:57-750000,35.93920026,126.548889,7.1363,4,0.8,371395373.5,159295178.6,255.86,70.22637108,-2309.82,8795.9,-1224.16,24.536,-81.679,25.43,104.862,-168.7,0.365,1.243,70.29954368,1630.5,30.9,0,115.8,4.8,21.6,132,12,63,10.2,81,196,0,0,256,35,1,129,3,70.22994323, pc_20251113_104757_691.laz,70.29996116, 20251113-104757.758746,1.763E+18
104757.8686,70.30611277, 20251113-10:47:57-850000,35.93920056,126.5488895,7.135,4,0.9,371395412.6,159295166,254.787,70.32634097,-2534.06,8901.58,-1185.62,23.74,-78.884,25.442,106.036,-167.5,0.379,1.224,70.39928902,1632.5,30.6,0,115.8,4.8,21.6,132.6,12.6,63,7.8,92.4,206,3,7,250,73,0,129,4,70.32890348, pc_20251113_104757_790.laz,70.40140608, 20251113-104757.860173,1.763E+18
104757.9684,70.40593431, 20251113-10:47:57-950000,35.93920087,126.54889,7.1328,4,0.9,371395450.8,159295159.4,253.653,70.4263635,-2739.22,8998.45,-1165.19,22.842,-76.13,25.448,107.074,-166.5,0.385,1.223,70.50284252,1638.5,30.25,0,118.8,4.2,21,132,15.6,63.6,6.6,92.4,213,2,0,247,82,4,125,4,70.42886624, pc_20251113_104757_890.laz,70.50101672, 20251113-104757.959758,1.763E+18
104758.0683,70.50650286, 20251113-10:47:58-050000,35.93920114,126.5488905,7.1376,4,1,371395484.6,159295150.3,252.659,70.52633882,-2926.91,9084.68,-1162.51,21.871,-73.455,25.377,108,-165.5,0.38,1.232,70.59995833,1640,30.1,0,123,3,19.8,130.2,19.8,70.8,6,91.8,216,1,2,247,87,0,128,0,70.5297676, pc_20251113_104757_990.laz,70.60513126, 20251113-104758.063872,1.763E+18
104758.1684,70.605462, 20251113-10:47:58-150000,35.93920143,126.5488908,7.1411,4,1.1,371395518.6,159295139.3,251.752,70.62636127,-3103.71,9154.94,-1177.72,20.882,-70.924,25.135,108.868,-164.6,0.379,1.257,70.69935995,1634,29.65,0,127.8,3,18.6,133.2,27.6,85.2,6,84.6,217,2,0,243,100,3,124,0,70.63053312, pc_20251113_104758_091.laz,70.70071565, 20251113-104758.159488,1.763E+18
104758.2685,70.70639386, 20251113-10:47:58-250000,35.93920168,126.5488912,7.1388,4,1.3,371395547.7,159295130,250.865,70.72633749,-3262.61,9217.47,-1204.87,19.852,-68.465,24.701,109.628,-163.8,0.388,1.259,70.79907959,1634,30.1,0,130.8,3,18,133.2,41.4,109.8,6,72.6,219,2,0,242,108,0,123,0,70.72922687, pc_20251113_104758_190.laz,70.80329439, 20251113-104758.262077,1.763E+18
104758.3692,70.80566916, 20251113-10:47:58-350000,35.9392019,126.5488914,7.1334,4,1.4,371395573.2,159295122.6,250.081,70.82640118,-3396.1,9274.62,-1244.43,18.836,-66.082,23.942,110.245,-163.1,0.384,1.266,70.89864009,1636,29.7,0,132,2.4,17.4,133.2,61.2,144,6,63.6,221,2,0,234,118,2,123,1,70.82967405, pc_20251113_104758_290.laz,70.90313636, 20251113-104758.361923,1.763E+18
104758.4686,70.90733568, 20251113-10:47:58-450000,35.93920211,126.5488917,7.128,4,1.5,371395596.8,159295110.4,249.421,70.92638616,-3541.76,9315.72,-1293.8,17.807,-63.755,22.935,110.946,-162.5,0.395,1.256,70.99952266,1630,29.95,0,132.6,2.4,16.8,133.8,87,186,9,57,220,2,3,224,129,1,123,3,70.92991748, pc_20251113_104758_391.laz,71.0031545, 20251113-104758.461935,1.763E+18
104758.5689,71.00649419, 20251113-10:47:58-550000,35.93920231,126.5488919,7.1289,4,1.5,371395618.7,159295104.6,248.825,71.02643523,-3664.49,9353.12,-1353.81,16.805,-61.484,21.579,111.521,-161.9,0.396,1.255,71.09927766,1624.5,30.65,0,131.4,1.8,16.8,134.4,112.8,229.2,23.4,56.4,222,0,4,216,138,2,125,3,71.03067941, pc_20251113_104758_491.laz,71.10284374, 20251113-104758.561593,1.763E+18
104758.6683,71.10639493, 20251113-10:47:58-650000,35.93920248,126.5488922,7.1315,4,1.6,371395637.1,159295098.7,248.302,71.12635735,-3777.45,9381.22,-1428.81,15.801,-59.252,19.754,112.054,-161.4,0.405,1.244,71.19996477,1625,29.55,0,132,1.8,18,136.8,133.2,264,43.2,64.2,224,1,0,203,138,4,111,2,71.13059036, pc_20251113_104758_591.laz,71.20713511, 20251113-104758.665934,1.763E+18
104758.7683,71.20587391, 20251113-10:47:58-750000,35.93920264,126.5488924,7.1308,4,1.8,371395655,159295093.5,247.831,71.22637021,-3881.71,9401.37,-1515.28,14.796,-57.08,17.684,112.552,-160.9,0.411,1.235,71.29930165,1628.5,31.15,0,132.6,1.8,22.2,136.8,147.6,287.4,48,78,207,3,0,180,140,1,102,3,71.23057493, pc_20251113_104758_691.laz,71.30137087, 20251113-104758.760134,1.763E+18
104758.8684,71.30610479, 20251113-10:47:58-850000,35.93920281,126.5488926,7.1284,4,1.9,371395672.5,159295087.4,247.342,71.32634831,-3972.43,9411.04,-1610.35,13.863,-55.148,15.64,112.999,-160.4,0.401,1.26,71.39948833,1635,30.95,0,135.6,1.8,24.6,141.6,154.8,301.8,25.8,92.4,193,2,0,156,138,2,91,2,71.32973064, pc_20251113_104758_790.laz,71.40357324, 20251113-104758.862340,1.763E+18
104758.9689,71.40557251, 20251113-10:47:58-950000,35.93920294,126.5488927,7.128,4,2,371395686.5,159295081.6,246.891,71.42644105,-4042.61,9406.86,-1717.94,12.989,-53.614,13.677,113.367,-160,0.391,1.274,71.49936401,1630,24.9,0,142.2,1.8,27,150,148.8,297,12.6,114,176,0,1,129,140,4,92,4,71.43076632, pc_20251113_104758_892.laz,71.50160901, 20251113-104758.960364,1.763E+18
104759.0686,71.50452587, 20251113-10:47:59-050000,35.93920305,126.5488929,7.13,4,2,371395698.4,159295075.8,246.537,71.52639634,-4099.41,9393.37,-1825.71,12.21,-52.435,12.02,113.684,-159.7,0.39,1.296,71.59921446,1632.5,19.45,0,148.2,1.8,31.8,156.6,133.2,270,7.8,126,155,3,0,102,138,0,89,5,71.52915396, pc_20251113_104758_990.laz,71.60317316, 20251113-104759.061960,1.763E+18
104759.1687,71.60452869, 20251113-10:47:59-150000,35.93920316,126.548893,7.1364,4,1.1,371395709.8,159295073.9,246.238,71.62644538,-4136.71,9371.69,-1931.03,11.596,-51.652,10.569,113.92,-159.5,0.391,1.349,71.69940819,1631,13.1,0,159,2.4,31.8,160.2,111,233.4,5.4,116.4,114,1,0,22,143,4,96,13,71.62954588, pc_20251113_104759_090.laz,71.70508753, 20251113-104759.163814,1.763E+18
104759.2686,71.70480435, 20251113-10:47:59-250000,35.93920325,126.548893,7.1397,4,1.3,371395719,159295073.6,245.966,71.7263733,-4150.17,9336.1,-2033.81,11.186,-51.444,9.287,114.065,-159.3,0.398,1.395,71.79996164,1621.5,7.45,0,171.6,2.4,23.4,162,88.8,199.2,3.6,99,33,5,4,17,135,8,91,9,71.72926652, pc_20251113_104759_190.laz,71.80203566, 20251113-104759.260608,1.763E+18
104759.3685,71.80444749, 20251113-10:47:59-350000,35.9392033,126.5488931,7.1453,4,1.4,371395724.5,159295072,245.818,71.82640274,-4148.4,9298.99,-2116.99,11.011,-51.485,8.016,114.139,-159.2,0.396,1.475,71.89925464,1553.5,0,0,182.4,2.4,17.4,163.8,69,174,3,67.8,9,5,49,11,103,0,91,7,71.82942474, pc_20251113_104759_290.laz,71.90408263, 20251113-104759.362873,1.763E+18
104759.4682,71.90551499, 20251113-10:47:59-450000,35.93920334,126.548893,7.1511,4,1.5,371395728.8,159295069.9,245.789,71.92643347,-4142.27,9277.15,-2156.26,11.034,-51.495,6.966,114.154,-159.2,0.409,1.552,71.99968594,1547,6.9,0,176.4,3,19.8,162.6,64.8,168,2.4,40.8,18,110,110,10,77,1,93,4,71.9303289, pc_20251113_104759_391.laz,72.00185449, 20251113-104759.460633,1.763E+18
104759.5684,72.00410214, 20251113-10:47:59-550000,35.93920336,126.548893,7.1544,4,1.5,371395731.2,159295068.6,245.809,72.02638681,-4141.02,9276.32,-2145.46,11.123,-51.477,6.643,114.151,-159.2,0.407,1.536,72.09908439,1555.5,8.8,0,166.2,3,24,160.2,66.6,165.6,2.4,19.2,10,135,152,18,40,0,103,8,72.02922139, pc_20251113_104759_490.laz,72.10247252, 20251113-104759.561234,1.763E+18
104759.6684,72.10420201, 20251113-10:47:59-650000,35.93920329,126.5488931,7.1462,4,1.6,371395724.3,159295073.2,245.823,72.12641605,-4138.33,9286.32,-2109.16,11.163,-51.473,6.663,114.115,-159.2,0.404,1.376,72.19914109,1564.5,10.95,0,153.6,4.2,30,157.2,68.4,163.8,6,10.8,14,149,156,15,15,6,102,6,72.12987578, pc_20251113_104759_591.laz,72.20259376, 20251113-104759.661360,1.763E+18
104759.7683,72.20411779, 20251113-10:47:59-750000,35.93920319,126.5488931,7.1332,4,1.8,371395713.4,159295079,245.837,72.22636956,-4135.66,9294.61,-2068.4,11.297,-51.527,6.683,114.081,-159.2,0.414,1.261,72.29906655,1556.5,10.2,0,132,5.4,42,157.2,72,162,9,9,16,170,171,11,9,6,96,5,72.22934958, pc_20251113_104759_690.laz,72.30003278, 20251113-104759.758799,1.763E+18
104759.8684,72.30495239, 20251113-10:47:59-850000,35.93920315,126.5488931,7.1289,4,1.9,371395708.5,159295081.2,245.887,72.32636235,-4129.1,9293.52,-2045.22,11.467,-51.733,6.691,114.05,-159.2,0.417,1.22,72.39944332,1558,11.6,0,124.2,4.8,49.2,163.2,73.8,161.4,10.8,9,11,174,178,12,9,3,95,5,72.32921979, pc_20251113_104759_790.laz,72.39922364, 20251113-104759.858005,1.763E+18
104759.9688,72.4040878, 20251113-10:47:59-950000,35.93920314,126.5488931,7.1305,4,2,371395707.7,159295081.2,245.925,72.42637525,-4114.87,9278.13,-2055.39,11.57,-52.158,6.677,114.011,-159.2,0.42,1.215,72.49940418,1549,14.3,0,131.4,4.2,51,171,73.2,161.4,12.6,9,4,173,193,9,8,9,85,5,72.42921426, pc_20251113_104759_890.laz,72.50329178, 20251113-104759.962087,1.763E+18
104800.0686,72.50498727, 20251113-10:48:00-050000,35.93920316,126.5488931,7.1332,4,2,371395709.9,159295079.7,245.969,72.52643108,-4094.98,9250.66,-2090.46,11.698,-52.771,6.655,113.972,-159.3,0.407,1.302,72.59929784,1544.5,18.25,0,145.8,4.8,49.8,173.4,71.4,162,12,6,2,177,203,7,8,3,75,3,72.53027981, pc_20251113_104759_991.laz,72.60298268, 20251113-104800.061732,1.763E+18
104800.1684,72.60452448, 20251113-10:48:00-150000,35.93920319,126.548893,7.1384,4,1.1,371395713.8,159295076.9,246.015,72.62636681,-4069.99,9211.07,-2134.83,11.866,-53.636,6.634,113.934,-159.3,0.401,1.388,72.699466,1541,22.15,0,158.4,5.4,48,177,69,163.2,12,4.2,2,183,212,6,6,1,70,3,72.62932775, pc_20251113_104800_090.laz,72.70357059, 20251113-104800.162320,1.763E+18
104800.269,72.70433664, 20251113-10:48:00-250000,35.93920321,126.548893,7.1438,4,1.3,371395715.1,159295075.5,246.061,72.72638359,-4040.38,9156.93,-2176.3,12.132,-54.845,6.624,113.904,-159.3,0.399,1.431,72.79932641,1554.5,29.55,0,162,6,51,183.6,68.4,163.2,11.4,3.6,2,188,209,6,3,5,70,1,72.73036394, pc_20251113_104800_191.laz,72.80340172, 20251113-104800.261434,1.763E+18
104800.3682,72.80415163, 20251113-10:48:00-350000,35.93920319,126.548893,7.1437,4,1.4,371395713.5,159295076.3,246.082,72.82635982,-4010.71,9099.57,-2202.67,12.46,-56.17,6.632,113.88,-159.4,0.402,1.413,72.89977531,1567.5,28.85,0,160.2,6.6,54.6,188.4,69,163.2,10.2,4.2,1,189,214,7,4,0,24,2,72.82907764, pc_20251113_104800_290.laz,72.902472, 20251113-104800.361200,1.763E+18
104800.4684,72.90412336, 20251113-10:48:00-450000,35.93920315,126.548893,7.1359,4,1.5,371395709,159295078.8,246.112,72.92644151,-3981.22,9041.4,-2215.07,12.837,-57.545,6.638,113.858,-159.4,0.406,1.35,72.99967661,1572.5,28.75,0,151.8,7.2,60,189,70.2,162.6,9,4.2,0,189,218,5,2,3,10,1,72.92950057, pc_20251113_104800_390.laz,73.00244921, 20251113-104800.461138,1.763E+18
104800.5682,73.00354898, 20251113-10:48:00-550000,35.93920311,126.548893,7.1314,4,1.5,371395704.5,159295080.9,246.126,73.02634673,-3952.67,8982.14,-2219.11,13.296,-58.94,6.641,113.844,-159.4,0.409,1.315,73.09937702,1582.5,29.15,0,142.8,7.2,63,186,72.6,161.4,8.4,4.2,1,194,217,5,2,2,4,2,73.02918535, pc_20251113_104800_490.laz,73.06902999, 20251113-104800.527719,1.763E+18
104800.6684,73.10336475, 20251113-10:48:00-650000,35.93920309,126.548893,7.132,4,1.6,371395702.1,159295081.8,246.118,73.12636244,-3923.57,8920.96,-2224.89,13.747,-60.34,6.653,113.832,-159.4,0.413,1.288,73.19927413,1584,28.15,0,139.8,7.2,63.6,180.6,73.8,160.8,8.4,4.2,0,200,222,3,2,2,4,6,73.12926483, pc_20251113_104800_590.laz,73.19896312, 20251113-104800.657734,1.763E+18
104800.7689,73.20330235, 20251113-10:48:00-750000,35.93920308,126.548893,7.134,4,1.8,371395701.2,159295081.9,246.11,73.22636173,-3893.2,8855.36,-2234.79,14.214,-61.784,6.667,113.824,-159.4,0.412,1.29,73.29917192,1581,31.3,0,141,6.6,64.8,175.2,76.8,159.6,8.4,3.6,7,211,217,3,3,3,3,6,73.22991875, pc_20251113_104800_691.laz,73.3003601, 20251113-104800.759087,1.763E+18
104800.8687,73.30430328, 20251113-10:48:00-850000,35.9392031,126.548893,7.1342,4,1.9,371395703.4,159295080.8,246.101,73.32640372,-3863,8788.74,-2242.91,14.718,-63.214,6.664,113.822,-159.4,0.403,1.326,73.39940888,1594.5,31.3,0,142.2,6.6,65.4,168,79.2,159,8.4,3.6,11,215,223,2,2,1,4,3,73.32963414, pc_20251113_104800_791.laz,73.402753, 20251113-104800.861533,1.763E+18
104800.9683,73.40407437, 20251113-10:48:00-950000,35.93920311,126.548893,7.1385,4,2,371395704.7,159295078.7,246.109,73.42637593,-3834.24,8721.86,-2240.33,15.247,-64.651,6.644,113.825,-159.4,0.409,1.323,73.4993083,1600,31.1,0,142.8,6,60,160.8,77.4,159.6,9,3.6,6,219,223,1,2,1,4,1,73.42902913, pc_20251113_104800_890.laz,73.5008842, 20251113-104800.959635,1.763E+18
104801.0684,73.50406676, 20251113-10:48:01-050000,35.9392031,126.548893,7.138,4,2,371395704.2,159295078.2,246.12,73.52635938,-3803.58,8652.17,-2229.81,15.824,-66.16,6.631,113.826,-159.4,0.408,1.301,73.59918554,1605,32.85,0,142.8,6,54.6,156,75,160.2,8.4,3,0,217,227,3,0,3,4,2,73.52912912, pc_20251113_104800_990.laz,73.60353349, 20251113-104801.062316,1.763E+18
104801.1683,73.60392647, 20251113-10:48:01-150000,35.93920309,126.548893,7.1366,4,1.1,371395702.7,159295079.9,246.122,73.62636832,-3772.63,8580.03,-2217.64,16.425,-67.69,6.623,113.83,-159.4,0.412,1.289,73.69913359,1616.5,30.8,0,142.2,6,51,150,73.8,160.8,7.8,3,0,215,228,2,3,0,4,3,73.62911268, pc_20251113_104801_090.laz,73.70321825, 20251113-104801.162001,1.763E+18
104801.2689,73.70451736, 20251113-10:48:01-250000,35.9392031,126.548893,7.1369,4,1.3,371395703.6,159295080.9,246.089,73.72649465,-3739.63,8506.55,-2205.69,17.035,-69.23,6.627,113.829,-159.4,0.406,1.292,73.79900271,1619.5,31.05,0,143.4,6,49.2,145.2,73.2,160.8,7.8,3,0,215,227,2,1,5,2,2,73.73017386, pc_20251113_104801_191.laz,73.80290339, 20251113-104801.261690,1.763E+18
104801.3687,73.80373812, 20251113-10:48:01-350000,35.9392031,126.548893,7.1372,4,1.4,371395703.8,159295080.2,246.097,73.82638184,-3706.07,8429,-2193.54,17.655,-70.803,6.609,113.834,-159.4,0.404,1.294,73.89897336,1625,30.9,0,142.2,6,47.4,141,72.6,161.4,7.2,3,1,214,237,2,0,0,4,3,73.83025075, pc_20251113_104801_291.laz,73.9033287, 20251113-104801.362103,1.763E+18
104801.4684,73.9040129, 20251113-10:48:01-450000,35.9392031,126.548893,7.1362,4,1.5,371395703.4,159295080.4,246.123,73.92638446,-3670.46,8346.51,-2184.11,18.279,-72.435,6.615,113.839,-159.4,0.405,1.307,73.99890813,1631.5,30.9,0,141,6,46.2,136.8,72.6,161.4,6.6,3.6,0,213,236,1,2,1,0,3,73.93024875, pc_20251113_104801_391.laz,74.00296501, 20251113-104801.461742,1.763E+18
104801.5688,74.00338831, 20251113-10:48:01-550000,35.93920309,126.548893,7.1364,4,1.5,371395702.8,159295080.9,246.157,74.02637814,-3631.5,8257.82,-2176.05,18.887,-74.146,6.61,113.839,-159.4,0.409,1.292,74.09917169,1639,30.85,0,140.4,6,45,133.2,72,161.4,6,3.6,0,210,246,3,2,4,2,2,74.02913018, pc_20251113_104801_490.laz,74.10139784, 20251113-104801.560179,1.763E+18
104801.6683,74.10349008, 20251113-10:48:01-650000,35.93920309,126.548893,7.1364,4,1.6,371395702.5,159295081.4,246.131,74.1264259,-3589.2,8162.06,-2171.53,19.507,-75.936,6.599,113.84,-159.4,0.407,1.293,74.19903782,1646,31.05,0,139.2,6,45,130.2,72,161.4,5.4,4.2,0,207,245,0,2,0,0,1,74.12941467, pc_20251113_104801_590.laz,74.19989634, 20251113-104801.658650,1.763E+18
104801.7684,74.20314417, 20251113-10:48:01-750000,35.93920309,126.548893,7.1404,4,1.8,371395702.6,159295081.5,246.115,74.22637081,-3543.29,8058.4,-2171.49,20.125,-77.819,6.604,113.84,-159.4,0.406,1.305,74.29890233,1647.5,31.3,0,139.2,6,45,127.8,72,161.4,5.4,4.2,0,208,249,3,1,1,2,1,74.22906168, pc_20251113_104801_690.laz,74.30514574, 20251113-104801.763857,1.763E+18
104801.869,74.30408909, 20251113-10:48:01-850000,35.9392031,126.548893,7.1396,4,1.9,371395703,159295081.3,246.098,74.32635865,-3493.4,7946.56,-2174.95,20.707,-79.79,6.601,113.835,-159.4,0.411,1.288,74.39936835,1655,30.55,0,138.6,6,45.6,125.4,72,162,4.8,4.2,6,205,257,3,3,3,0,1,74.32906523, pc_20251113_104801_790.laz,74.40404229, 20251113-104801.862816,1.763E+18
104801.9683,74.40442178, 20251113-10:48:01-950000,35.9392031,126.548893,7.1382,4,2,371395703.8,159295080.7,246.076,74.42641333,-3440.21,7827.43,-2181.06,21.284,-81.839,6.612,113.832,-159.4,0.41,1.278,74.49950227,1655,29.5,0,138.6,5.4,45,123.6,72,161.4,4.8,3.6,8,205,256,5,2,0,0,1,74.42942533, pc_20251113_104801_890.laz,74.50031326, 20251113-104801.959094,1.763E+18
104802.0689,74.50384732, 20251113-10:48:02-050000,35.93920311,126.548893,7.1339,4,2,371395704.5,159295080.4,246.054,74.52639964,-3386.11,7701.17,-2188.69,21.871,-83.937,6.612,113.842,-159.4,0.409,1.288,74.59968674,1651,30.05,0,138,5.4,45.6,121.2,72.6,160.8,4.8,3.6,5,203,261,2,1,1,3,4,74.52915654, pc_20251113_104801_990.laz,74.60282229, 20251113-104802.061594,1.763E+18
104802.1685,74.6044592, 20251113-10:48:02-150000,35.93920311,126.548893,7.1354,4,2.2,371395704.5,159295080.7,246.072,74.6263974,-3328.44,7571.96,-2195.22,22.442,-86.061,6.626,113.838,-159.4,0.406,1.291,74.6996069,1646.5,30.15,0,137.4,5.4,46.8,119.4,73.8,160.8,4.8,3.6,0,201,261,0,1,0,2,5,74.62953325, pc_20251113_104802_090.laz,74.70144821, 20251113-104802.160211,1.763E+18
104802.2689,74.70427097, 20251113-10:48:02-250000,35.93920311,126.548893,7.1372,4,1.3,371395705.3,159295081.4,246.104,74.72641264,-3269.68,7439.05,-2199.34,22.998,-88.2,6.625,113.836,-159.4,0.412,1.276,74.7998772,1650,30,0,136.8,5.4,48,118.8,73.8,160.8,4.8,3.6,0,201,264,0,1,0,4,5,74.72932764, pc_20251113_104802_190.laz,74.80249098, 20251113-104802.261261,1.763E+18
104802.3688,74.80353417, 20251113-10:48:02-350000,35.93920311,126.548893,7.1386,4,1.4,371395704.7,159295081.9,246.101,74.82639355,-3209.05,7302.34,-2201.13,23.549,-90.361,6.616,113.835,-159.4,0.411,1.256,74.89941994,1649.5,29.6,0,136.8,6,49.2,118.2,75,160.2,4.8,3.6,0,200,260,2,0,1,1,3,74.83025726, pc_20251113_104802_291.laz,74.90475738, 20251113-104802.363505,1.763E+18
104802.4684,74.9041903, 20251113-10:48:02-450000,35.9392031,126.548893,7.1379,4,1.5,371395703.6,159295081.9,246.135,74.92641165,-3147.64,7164.96,-2200.73,24.124,-92.524,6.674,113.833,-159.4,0.4,1.275,74.99929347,1650.5,29.9,0,135.6,6,50.4,117.6,75,160.2,4.8,3,0,199,268,1,1,0,4,0,74.92975126, pc_20251113_104802_390.laz,75.00063247, 20251113-104802.459392,1.763E+18
104802.5688,75.00334775, 20251113-10:48:02-550000,35.93920311,126.548893,7.1375,4,1.5,371395704.4,159295081.4,246.131,75.02648865,-3082.93,7020.72,-2196.35,24.709,-94.728,6.622,113.825,-159.4,0.402,1.277,75.09943257,1648.5,30.1,0,135,6,51,117.6,74.4,160.8,6.6,3,0,197,263,0,0,4,0,0,75.0301637, pc_20251113_104802_492.laz,75.10206731, 20251113-104802.560835,1.763E+18
104802.6683,75.103892, 20251113-10:48:02-650000,35.93920311,126.548893,7.1385,4,1.6,371395704.8,159295081.7,246.074,75.12640825,-3015.44,6871.26,-2190.64,25.275,-96.988,6.609,113.813,-159.4,0.407,1.27,75.19933647,1652,30.25,0,134.4,6,50.4,117.6,73.8,160.8,8.4,3,0,196,272,1,2,0,1,0,75.12935246, pc_20251113_104802_590.laz,75.20005802, 20251113-104802.658841,1.763E+18
104802.7693,75.20455619, 20251113-10:48:02-750000,35.9392031,126.548893,7.1378,4,1.8,371395703.3,159295081.9,246.103,75.22642402,-2947.68,6717.02,-2184.26,25.804,-99.279,6.627,113.815,-159.5,0.411,1.247,75.29911349,1652,29.55,0,134.4,6,51,117.6,73.2,160.8,9,3,0,196,274,2,1,1,0,1,75.22975672, pc_20251113_104802_690.laz,75.30412503, 20251113-104802.762907,1.763E+18
104802.8682,75.30409225, 20251113-10:48:02-850000,35.93920308,126.548893,7.1368,4,1.9,371395701.8,159295081.8,246.139,75.3263829,-2877.4,6556.99,-2174.39,26.383,-101.612,6.61,113.82,-159.4,0.404,1.266,75.39974018,1650,30.1,0,135,6,51.6,118.2,73.2,161.4,9,3,0,193,276,1,2,4,4,1,75.32933333, pc_20251113_104802_790.laz,75.40050298, 20251113-104802.859258,1.763E+18
104802.9683,75.40408546, 20251113-10:48:02-950000,35.93920309,126.548893,7.137,4,2,371395702.2,159295081.6,246.123,75.42642129,-2803.97,6391.34,-2161.16,26.942,-104.006,6.613,113.819,-159.4,0.399,1.266,75.49928327,1646,29.85,0,135,6,52.2,119.4,72.6,161.4,9,3,3,191,286,2,7,0,0,3,75.42950794, pc_20251113_104802_890.laz,75.5015773, 20251113-104802.960338,1.763E+18
104803.0683,75.50383253, 20251113-10:48:03-050000,35.93920309,126.548893,7.1391,4,2,371395702.4,159295081.5,246.13,75.52637541,-2729.55,6221.37,-2144.05,27.492,-106.428,6.614,113.824,-159.4,0.4,1.259,75.59956596,1649.5,30.05,0,134.4,6,54,120,72.6,161.4,7.8,3,0,186,290,1,72,1,1,0,75.52981072, pc_20251113_104802_991.laz,75.60117581, 20251113-104803.059949,1.763E+18
104803.1683,75.6038211, 20251113-10:48:03-150000,35.93920308,126.548893,7.1386,4,1.1,371395701.4,159295080.2,246.121,75.62639139,-2653.86,6047.25,-2122.19,28.042,-108.881,6.612,113.835,-159.4,0.401,1.251,75.69920544,1650.5,29.55,0,133.2,6.6,56.4,121.2,73.8,161.4,7.2,3,3,181,306,0,93,2,0,0,75.62993163, pc_20251113_104803_091.laz,75.70378037, 20251113-104803.162545,1.763E+18
104803.2683,75.70410761, 20251113-10:48:03-250000,35.93920308,126.548893,7.1393,4,1.3,371395701.6,159295080.9,246.133,75.72647329,-2575.53,5869.96,-2097.89,28.582,-111.355,6.614,113.837,-159.4,0.397,1.253,75.79903525,1654,29.75,0,128.4,7.2,58.2,121.2,81,168,6.6,3.6,0,178,313,0,121,0,3,0,75.73071441, pc_20251113_104803_191.laz,75.79873355, 20251113-104803.257503,1.763E+18
104803.3687,75.80402364, 20251113-10:48:03-350000,35.93920307,126.548893,7.1382,4,1.4,371395700.7,159295082,246.151,75.8263929,-2490.35,5677.73,-2068.53,29.127,-113.841,6.165,113.836,-159.4,0.4,1.238,75.89911,1649.5,29.25,0,121.8,6.6,61.2,120,94.8,183,6,3,0,171,310,0,161,2,0,0,75.82987356, pc_20251113_104803_291.laz,75.90136764, 20251113-104803.360136,1.763E+18
104803.4683,75.90402579, 20251113-10:48:03-450000,35.93920306,126.548893,7.134,4,1.5,371395698.9,159295083.4,246.148,75.92638683,-2395.88,5464.67,-2039.89,29.592,-116.304,5.053,113.832,-159.4,0.406,1.187,75.99928494,1649.5,29.95,0,116.4,6.6,66,121.2,99.6,178.8,5.4,3.6,0,162,309,1,192,2,2,0,75.92976015, pc_20251113_104803_391.laz,76.00084865, 20251113-104803.459587,1.763E+18
104803.5684,76.00333031, 20251113-10:48:03-550000,35.93920304,126.548893,7.1305,4,1.5,371395697.1,159295084.7,246.152,76.02639863,-2285.26,5214.92,-2009.61,30.036,-118.754,2.796,113.829,-159.4,0.41,1.164,76.10008294,1653.5,29.3,0,110.4,6.6,69,121.8,84.6,145.2,4.8,3.6,0,155,265,1,206,0,4,0,76.02936265, pc_20251113_104803_490.laz,76.10227962, 20251113-104803.561031,1.763E+18
104803.6683,76.10417537, 20251113-10:48:03-650000,35.93920304,126.548893,7.1317,4,1.6,371395697.3,159295084.4,246.17,76.12643971,-2159.35,4932.56,-1974,30.404,-121.221,-0.364,113.822,-159.4,0.403,1.167,76.19936058,1646,28.8,0,109.2,5.4,70.8,122.4,64.2,108.6,4.8,4.2,0,148,246,2,213,1,3,1,76.12973668, pc_20251113_104803_591.laz,76.20016194, 20251113-104803.658944,1.763E+18
104803.7687,76.20451681, 20251113-10:48:03-750000,35.93920304,126.548893,7.133,4,1.8,371395696.7,159295084.1,246.166,76.22639243,-2027.12,4633.38,-1929.89,30.616,-123.781,-3.685,113.823,-159.4,0.405,1.169,76.29957351,1644,30.25,0,111.6,4.2,70.8,129,51,85.8,4.8,3.6,0,145,206,1,206,0,2,11,76.22932841, pc_20251113_104803_690.laz,76.30310055, 20251113-104803.761866,1.763E+18
104803.8683,76.30384362, 20251113-10:48:03-850000,35.93920304,126.548893,7.1336,4,1.9,371395697.3,159295084.7,246.163,76.32639223,-1892.04,4328.64,-1871.57,30.704,-126.412,-6.968,113.821,-159.4,0.408,1.175,76.39968983,1650.5,29.45,0,118.2,3.6,60,171.6,40.8,84,4.8,3.6,2,142,137,2,127,1,13,80,76.32908866, pc_20251113_104803_790.laz,76.40173502, 20251113-104803.860486,1.763E+18
104803.9684,76.40387893, 20251113-10:48:03-950000,35.93920305,126.548893,7.1343,4,2,371395698.2,159295083.8,246.163,76.42640476,-1770.24,4053.98,-1799.52,30.7,-128.588,-10.536,113.82,-159.4,0.409,1.164,76.49957552,1665.5,23.2,0,134.4,3,33.6,273,27.6,122.4,4.8,3.6,9,146,41,15,14,0,17,76,76.42935493, pc_20251113_104803_890.laz,76.50586853, 20251113-104803.964622,1.763E+18
104804.0691,76.5043428, 20251113-10:48:04-050000,35.93920303,126.548893,7.1324,4,2,371395695.8,159295083.7,246.158,76.52643125,-1731.39,3964.73,-1777.11,30.638,-129.354,-11.509,113.827,-159.4,0.412,1.166,76.59988557,1670,10.85,0,150.6,6,60.6,227.4,42.6,127.2,7.2,3,5,141,16,69,19,105,8,68,76.53072793, pc_20251113_104803_992.laz,76.60075723, 20251113-104804.059489,1.763E+18
104804.1691,76.60364159, 20251113-10:48:04-150000,35.93920297,126.548893,7.132,4,1.1,371395689.4,159295084.8,246.133,76.62638971,-1780.18,4077.6,-1787.83,30.934,-128.055,-11.341,113.82,-159.5,0.397,1.223,76.69905604,1647.5,8.1,0,127.8,12,113.4,121.2,70.8,119.4,7.2,3,10,142,26,137,11,147,4,77,76.63050503, pc_20251113_104804_091.laz,76.70262097, 20251113-104804.161390,1.763E+18
104804.2685,76.70445946, 20251113-10:48:04-250000,35.93920309,126.548893,7.1425,4,1.3,371395702.4,159295077.6,246.131,76.72640333,-1792.97,4107.08,-1759.62,31.562,-127.97,-10.99,113.833,-159.4,0.366,1.402,76.79937953,1622.5,9.15,0,108.6,7.8,85.8,168.6,64.2,132.6,6,3,6,126,27,195,6,158,10,89,76.72961012, pc_20251113_104804_190.laz,76.80380236, 20251113-104804.262578,1.763E+18
104804.3686,76.80349923, 20251113-10:48:04-350000,35.93920321,126.5488929,7.1399,4,1.4,371395716.5,159295073.4,246.131,76.82637137,-1770.61,4042.6,-1722.22,31.542,-128.948,-10.769,113.88,-159.4,0.437,1.105,76.89891443,1603.5,16.9,0,120.6,6,40.8,213.6,45,139.8,5.4,3.6,7,100,34,263,12,169,10,87,76.8298567, pc_20251113_104804_291.laz,76.89925818, 20251113-104804.358038,1.763E+18
104804.4684,76.90354582, 20251113-10:48:04-450000,35.93920302,126.5488932,7.1215,4,1.5,371395695,159295091.2,246.021,76.92638794,-1808.83,4117.96,-1734.47,31.505,-128.349,-9.826,113.922,-159.4,0.47,0.957,76.99904684,1586.5,21.45,0,125.4,12,24,191.4,48.6,150,8.4,4.2,0,30,18,283,9,177,10,96,76.92947568, pc_20251113_104804_390.laz,77.00400774, 20251113-104804.462789,1.763E+18
104804.5686,77.00322753, 20251113-10:48:04-550000,35.9392029,126.548893,7.1211,4,1.5,371395681.1,159295085.1,246.027,77.02638634,-1893.36,4334.88,-1768.89,31.787,-126.328,-8.147,113.827,-159.5,0.369,1.085,77.0989686,1593,24.55,0,120.6,28.2,19.8,168,55.8,156.6,9.6,6,0,2,11,370,4,165,6,99,77.02934793, pc_20251113_104804_490.laz,77.10365707, 20251113-104804.562438,1.763E+18
104804.6687,77.10449367, 20251113-10:48:04-650000,35.93920295,126.5488931,7.1241,4,1.6,371395687.1,159295085,246.185,77.12638032,-2032.61,4632.95,-1812.51,31.706,-123.247,-6.285,113.871,-159.5,0.46,0.998,77.19947769,1617.5,27.45,0,126,20.4,20.4,125.4,55.2,147,20.4,24,0,1,8,400,6,185,5,104,77.12931753, pc_20251113_104804_590.laz,77.20111058, 20251113-104804.659866,1.763E+18
104804.7686,77.20444989, 20251113-10:48:04-750000,35.93920301,126.5488931,7.1239,4,1.8,371395693.5,159295086.6,246.075,77.22652652,-2189.29,4972.46,-1852.85,31.638,-119.649,-4.319,113.946,-159.4,0.415,1.125,77.29948402,1619.5,29.55,0,133.8,12.6,20.4,103.8,44.4,133.2,32.4,58.8,0,2,10,407,8,207,7,114,77.23008546, pc_20251113_104804_691.laz,77.3021745, 20251113-104804.760930,1.763E+18
104804.8686,77.30401529, 20251113-10:48:04-850000,35.93920308,126.548893,7.1426,4,1.9,371395700.7,159295081.4,245.987,77.32641738,-2337.72,5324.14,-1866.17,31.65,-116.271,-1.559,113.896,-159.4,0.353,1.335,77.39909719,1610.5,27.95,0,145.2,9.6,19.8,90.6,34.2,118.2,36.6,91.8,46,3,8,399,2,197,8,132,77.32934123, pc_20251113_104804_790.laz,77.40363536, 20251113-104804.862296,1.763E+18
104804.9688,77.40385314, 20251113-10:48:04-950000,35.93920308,126.548893,7.1396,4,2,371395701.9,159295081.2,246.12,77.42638585,-2479.64,5677.81,-1842.64,31.521,-113.133,1.8,113.766,-159.5,0.377,1.345,77.49897757,1600,27.15,0,154.8,9,19.2,91.2,29.4,114,27,121.8,98,6,2,392,1,198,2,127,77.42953912, pc_20251113_104804_890.laz,77.50038649, 20251113-104804.959171,1.763E+18
104805.0683,77.50376177, 20251113-10:48:05-050000,35.93920303,126.5488929,7.1381,4,2,371395696.4,159295082.9,246.247,77.52644335,-2616.03,6014.99,-1772.03,31.493,-110.233,5.237,113.677,-159.6,0.365,1.288,77.59931162,1604.5,32.05,0,148.8,15.6,18.6,96,30,114,22.2,138,137,10,4,400,2,174,2,131,77.52953777, pc_20251113_104804_990.laz,77.60287895, 20251113-104805.061641,1.763E+18
104805.1688,77.6041849, 20251113-10:48:05-150000,35.93920297,126.5488929,7.1362,4,2.2,371395690,159295090.3,246.305,77.62642044,-2734.84,6345.71,-1660.9,31.568,-107.456,8.745,113.48,-159.8,0.38,1.234,77.69889778,1604.5,31.6,0,128.4,19.8,19.2,100.8,48.6,118.2,25.2,132.6,151,5,0,411,0,122,2,138,77.63021181, pc_20251113_104805_091.laz,77.70424899, 20251113-104805.163026,1.763E+18
104805.2685,77.70453183, 20251113-10:48:05-250000,35.9392028,126.5488928,7.1281,4,1.3,371395671.6,159295098.4,246.578,77.72639458,-2821.11,6649.41,-1541.79,31.494,-104.512,10.935,113.15,-160.1,0.401,1.088,77.79902133,1614,32.65,0,104.4,12,20.4,107.4,67.8,148.8,24.6,130.2,168,4,5,409,0,115,3,141,77.72972458, pc_20251113_104805_191.laz,77.80396347, 20251113-104805.262741,1.763E+18
104805.3685,77.80399479, 20251113-10:48:05-350000,35.9392026,126.5488926,7.1197,4,1.4,371395650.9,159295103.9,247.016,77.82640172,-2875.14,6914.63,-1447.29,31.292,-101.346,11.324,112.737,-160.5,0.399,0.996,77.89868215,1624.5,32.05,0,87,7.2,21,108.6,84,175.8,22.8,133.8,183,4,1,408,0,106,0,143,77.82945011, pc_20251113_104805_290.laz,77.90468242, 20251113-104805.363406,1.763E+18
104805.4687,77.90406271, 20251113-10:48:05-450000,35.93920247,126.5488925,7.1211,4,1.5,371395636,159295114.9,247.39,77.92640783,-2915.47,7163.46,-1386.27,30.865,-98.208,11.585,112.302,-160.9,0.407,1.011,77.99911332,1636,32.5,0,85.2,5.4,21,106.2,93.6,192,24,126.6,179,3,3,411,0,99,1,142,77.92936478, pc_20251113_104805_390.laz,78.00314626, 20251113-104805.461926,1.763E+18
104805.5686,78.00475632, 20251113-10:48:05-550000,35.93920231,126.5488923,7.119,4,1.5,371395619.3,159295122.2,247.832,78.02639431,-2927.78,7398.31,-1364.99,30.111,-95.16,11.743,111.745,-161.5,0.403,1.024,78.0994307,1640,31.1,0,96.6,4.8,20.4,111.6,97.2,202.2,25.2,125.4,178,1,0,415,3,94,1,141,78.02931308, pc_20251113_104805_490.laz,78.09956699, 20251113-104805.558355,1.763E+18
104805.6686,78.10461756, 20251113-10:48:05-650000,35.93920218,126.548892,7.1229,4,1.6,371395604.5,159295126,248.408,78.12642258,-2923.07,7615.67,-1376.78,29.24,-92.24,11.84,111.152,-162.1,0.379,1.152,78.19936324,1635,28.55,0,118.8,3.6,19.8,120.6,96,208.2,26.4,127.2,180,0,0,413,0,82,2,139,78.1291219, pc_20251113_104805_590.laz,78.20121361, 20251113-104805.659984,1.763E+18
104805.7684,78.20474997, 20251113-10:48:05-750000,35.93920206,126.5488917,7.1305,4,1.8,371395590.2,159295131.7,248.896,78.22636986,-2903.24,7820.17,-1403.04,28.314,-89.439,11.9,110.521,-162.7,0.359,1.311,78.29954573,1635.5,30.25,0,143.4,3.6,19.2,132.6,92.4,211.2,30,125.4,181,2,2,413,0,42,2,126,78.22986371, pc_20251113_104805_691.laz,78.3022053, 20251113-104805.760953,1.763E+18
104805.8688,78.30455282, 20251113-10:48:05-850000,35.93920187,126.5488914,7.1414,4,1.9,371395568.3,159295138.5,249.55,78.32649758,-2865,8016.27,-1421.51,27.419,-86.764,11.893,109.819,-163.3,0.351,1.415,78.39977258,1646,31.2,0,159.6,3.6,19.2,145.2,91.2,212.4,39.6,108,183,4,0,413,0,1,1,114,78.33008979, pc_20251113_104805_791.laz,78.40554255, 20251113-104805.864299,1.763E+18
104805.9687,78.4045435, 20251113-10:48:05-950000,35.93920164,126.548891,7.1486,4,2,371395542.5,159295146.4,250.245,78.42640128,-2821.24,8213.05,-1413.04,26.606,-84.085,11.882,109.108,-164,0.348,1.442,78.49961606,1654.5,30.65,0,163.8,4.2,19.8,151.2,90.6,212.4,51.6,85.8,179,3,2,415,3,1,2,113,78.43024123, pc_20251113_104805_891.laz,78.50429784, 20251113-104805.963049,1.763E+18
104806.0686,78.50424645, 20251113-10:48:06-050000,35.93920145,126.5488908,7.1484,4,2,371395519,159295156.9,250.981,78.52645141,-2777.71,8412.13,-1371.72,25.9,-81.355,11.87,108.421,-164.7,0.357,1.402,78.59906488,1653.5,30.1,0,156.6,5.4,19.8,151.8,90.6,212.4,64.2,79.8,176,1,0,415,4,4,3,112,78.52986878, pc_20251113_104805_991.laz,78.60146665, 20251113-104806.060249,1.763E+18
104806.1684,78.60424297, 20251113-10:48:06-150000,35.93920121,126.5488905,7.1433,4,2.2,371395490.5,159295165.8,251.699,78.62644169,-2724.65,8613.87,-1306.55,25.304,-78.581,11.868,107.7,-165.4,0.352,1.367,78.69941029,1646.5,29.15,0,143.4,5.4,20.4,150,92.4,211.8,88.2,63,181,1,2,418,3,2,1,108,78.63002042, pc_20251113_104806_092.laz,78.70139221, 20251113-104806.160149,1.763E+18
104806.2684,78.70429466, 20251113-10:48:06-250000,35.93920098,126.5488902,7.1408,4,1.3,371395462.7,159295173.6,252.433,78.72649496,-2676.55,8810.43,-1233.2,24.67,-75.755,11.861,107.044,-166.1,0.373,1.296,78.79975599,1643.5,29.05,0,129,5.4,21,145.8,94.2,210.6,102,46.2,199,2,0,411,2,0,0,105,78.7304388, pc_20251113_104806_191.laz,78.80241757, 20251113-104806.261142,1.763E+18
104806.3694,78.80350751, 20251113-10:48:06-350000,35.9392008,126.5488899,7.138,4,1.4,371395441.5,159295180.3,253.073,78.82641951,-2638.67,8998.32,-1164.3,23.964,-72.882,11.86,106.487,-166.6,0.388,1.233,78.8996964,1641.5,27.85,0,116.4,4.8,21,139.2,96.6,210,105.6,25.2,216,3,0,413,5,3,5,102,78.82981194, pc_20251113_104806_291.laz,78.90195948, 20251113-104806.360723,1.763E+18
104806.4686,78.90460952, 20251113-10:48:06-450000,35.93920066,126.5488897,7.1327,4,1.5,371395422.7,159295184.8,253.647,78.926394,-2599.08,9177.14,-1113.36,23.172,-70.003,11.863,105.956,-167.2,0.386,1.227,78.99964314,1636,29.45,0,108,4.8,20.4,132.6,98.4,209.4,103.2,13.2,228,4,1,407,4,0,0,98,78.9297671, pc_20251113_104806_390.laz,79.00309284, 20251113-104806.461856,1.763E+18
104806.5683,79.00447209, 20251113-10:48:06-550000,35.93920052,126.5488895,7.1349,4,1.5,371395405.5,159295188.6,254.2,79.02639059,-2566.68,9339.83,-1090.88,22.236,-67.186,11.855,105.51,-167.6,0.373,1.246,79.0997586,1631.5,30.3,0,106.2,3.6,20.4,130.2,99,208.8,90,8.4,231,3,0,331,26,3,2,95,79.02934823, pc_20251113_104806_490.laz,79.10306432, 20251113-104806.561847,1.763E+18
104806.6694,79.10454218, 20251113-10:48:06-650000,35.93920043,126.5488893,7.1377,4,1.6,371395393.4,159295192.5,254.553,79.12662943,-2544.43,9485.73,-1099.65,21.116,-64.447,11.855,105.157,-168,0.377,1.253,79.19910536,1636,31.15,0,111,2.4,19.2,132,99,208.8,82.2,7.2,233,2,6,246,71,4,0,84,79.13033795, pc_20251113_104806_591.laz,79.20134556, 20251113-104806.660114,1.763E+18
104806.7685,79.20396029, 20251113-10:48:06-750000,35.93920036,126.5488892,7.1398,4,1.8,371395383.5,159295194.4,254.902,79.22638102,-2522.86,9618.06,-1135.36,19.887,-61.793,11.852,104.837,-168.3,0.363,1.283,79.2990851,1637.5,29.9,0,121.2,1.2,18.6,141,99,208.8,78,6,235,1,0,242,75,2,3,75,79.22895586, pc_20251113_104806_690.laz,79.3020698, 20251113-104806.760861,1.763E+18
104806.8686,79.30376738, 20251113-10:48:06-850000,35.93920031,126.548889,7.141,4,1.9,371395376.5,159295193.9,255.126,79.32639272,-2510.92,9737.31,-1187.2,18.609,-59.2,11.842,104.597,-168.6,0.352,1.337,79.39886925,1639,29.75,0,133.8,0.6,18,151.8,97.2,209.4,78.6,5.4,236,1,1,238,75,3,0,75,79.32924541, pc_20251113_104806_790.laz,79.40339977, 20251113-104806.862176,1.763E+18
104806.9688,79.40364222, 20251113-10:48:06-950000,35.93920027,126.5488889,7.1437,4,2,371395370.9,159295195.1,255.4,79.42638271,-2508.26,9848.52,-1239.74,17.342,-56.606,11.825,104.425,-168.8,0.34,1.407,79.4988471,1639.5,29.6,0,142.8,0.6,17.4,160.8,96,210,85.8,5.4,236,2,1,235,77,1,0,71,79.42900203, pc_20251113_104806_890.laz,79.50276481, 20251113-104806.961542,1.763E+18
104807.0688,79.50377523, 20251113-10:48:07-050000,35.93920026,126.5488889,7.1497,4,2,371395368.8,159295194.5,255.563,79.52645173,-2513.07,9953.21,-1282.67,16.082,-54.024,11.818,104.304,-168.9,0.336,1.43,79.59934919,1649,29.55,0,148.8,0,17.4,168.6,95.4,210,92.4,5.4,233,3,0,233,82,0,3,72,79.52996006, pc_20251113_104806_991.laz,79.600395, 20251113-104807.059176,1.763E+18
104807.1685,79.60407127, 20251113-10:48:07-150000,35.93920026,126.5488888,7.1505,4,1.1,371395368.5,159295192.9,255.622,79.62640357,-2529.18,10052.29,-1309.63,14.883,-51.425,11.802,104.255,-169,0.333,1.434,79.69908201,1657.5,29.7,0,149.4,0.6,17.4,171,97.2,212.4,87.6,5.4,231,1,4,232,87,3,2,69,79.62950158, pc_20251113_104807_090.laz,79.7033115, 20251113-104807.162100,1.763E+18
104807.2685,79.70489867, 20251113-10:48:07-250000,35.93920024,126.5488888,7.147,4,1.3,371395367.3,159295193.8,255.615,79.7264233,-2553.32,10146.8,-1323.18,13.739,-48.784,11.732,104.256,-169,0.328,1.433,79.79960061,1654,29.95,0,146.4,0.6,17.4,172.8,102.6,220.2,79.2,9.6,227,3,1,222,93,1,5,68,79.7294509, pc_20251113_104807_190.laz,79.80278419, 20251113-104807.261560,1.763E+18
104807.3687,79.80374873, 20251113-10:48:07-350000,35.93920022,126.5488889,7.1459,4,1.4,371395365.3,159295193.3,255.618,79.82640358,-2583.29,10235.58,-1327.78,12.627,-46.1,11.519,104.294,-169,0.329,1.415,79.89955903,1645.5,28.4,0,141.6,1.2,18,173.4,112.2,234,61.8,20.4,224,2,2,211,98,1,6,35,79.8297022, pc_20251113_104807_290.laz,79.90053704, 20251113-104807.359264,1.763E+18
104807.4683,79.90427816, 20251113-10:48:07-450000,35.93920023,126.5488889,7.1467,4,1.5,371395366.1,159295192.9,255.602,79.92641399,-2616.16,10316.86,-1332.08,11.534,-43.412,11.15,104.358,-168.9,0.324,1.398,79.99907582,1651,29.25,0,139.2,1.2,21.6,171.6,124.8,253.8,47.4,30,220,2,2,190,100,3,5,12,79.93172874, pc_20251113_104807_392.laz,80.00437112, 20251113-104807.463132,1.763E+18
104807.5684,80.0039693, 20251113-10:48:07-550000,35.93920025,126.5488889,7.1459,4,1.5,371395368.6,159295191.8,255.533,80.02640284,-2650.14,10388,-1340.57,10.496,-40.821,10.679,104.44,-168.9,0.319,1.406,80.09896087,1644,28.45,0,135.6,1.2,25.8,172.8,138.6,277.2,41.4,33.6,201,4,3,166,100,2,1,6,80.02966909, pc_20251113_104807_490.laz,80.10426126, 20251113-104807.563046,1.763E+18
104807.6683,80.10392471, 20251113-10:48:07-650000,35.93920027,126.5488889,7.1469,4,1.6,371395372.3,159295190.3,255.464,80.12640178,-2679.34,10438.53,-1367.73,9.547,-38.687,10.113,104.523,-168.8,0.32,1.402,80.19938212,1645.5,25.25,0,135,1.2,26.4,172.2,147.6,296.4,38.4,34.8,192,3,2,152,100,7,5,4,80.13011552, pc_20251113_104807_591.laz,80.20321966, 20251113-104807.661998,1.763E+18
104807.7685,80.20434098, 20251113-10:48:07-750000,35.93920028,126.548889,7.1477,4,1.8,371395373.6,159295190.5,255.376,80.22639516,-2702.45,10471.38,-1413.34,8.69,-37.069,9.725,104.596,-168.8,0.323,1.404,80.29918822,1638.5,18.95,0,133.8,1.2,26.4,178.8,149.4,297,35.4,36.6,187,1,0,144,101,2,1,6,80.22987825, pc_20251113_104807_691.laz,80.30108391, 20251113-104807.759859,1.763E+18
104807.8683,80.30382143, 20251113-10:48:07-850000,35.93920028,126.548889,7.1466,4,1.9,371395374.2,159295190.1,255.328,80.3264439,-2720.17,10492.33,-1472.46,7.871,-35.829,9.502,104.657,-168.7,0.324,1.387,80.39933625,1632.5,15.8,0,131.4,0.6,22.8,183.6,145.8,289.2,30,39.6,184,2,2,136,99,3,5,2,80.33037709, pc_20251113_104807_791.laz,80.39980903, 20251113-104807.858605,1.763E+18
104807.9682,80.4035815, 20251113-10:48:07-950000,35.9392003,126.548889,7.1455,4,2,371395376.3,159295189.5,255.282,80.4264147,-2732,10500.09,-1552.67,7.109,-34.959,9.274,104.704,-168.7,0.322,1.382,80.4999728,1621.5,13.1,0,127.8,0.6,16.2,190.8,140.4,278.4,27,40.8,179,4,0,126,102,2,1,2,80.42931502, pc_20251113_104807_890.laz,80.5023461, 20251113-104807.961140,1.763E+18
104808.0686,80.50350232, 20251113-10:48:08-050000,35.93920031,126.5488891,7.144,4,2,371395377.7,159295188.3,255.238,80.52640315,-2739.7,10493.8,-1655.69,6.393,-34.469,9.027,104.749,-168.6,0.324,1.38,80.59917663,1613.5,11.7,0,127.2,0.6,10.8,199.2,133.8,267,28.2,40.2,174,3,5,107,101,1,3,2,80.52913179, pc_20251113_104807_990.laz,80.60290354, 20251113-104808.061683,1.763E+18
104808.1684,80.60344795, 20251113-10:48:08-150000,35.93920031,126.5488891,7.1408,4,1.1,371395377.9,159295188.7,255.219,80.62638571,-2741.45,10476.69,-1782.32,5.653,-34.242,8.766,104.775,-168.6,0.34,1.369,80.69960527,1608.5,9.85,0,135,0.6,9,200.4,125.4,255,30,37.8,158,4,1,86,102,3,3,3,80.62911092, pc_20251113_104808_090.laz,80.70271886, 20251113-104808.161402,1.763E+18
104808.269,80.70525989, 20251113-10:48:08-250000,35.93920032,126.5488891,7.1405,4,1.3,371395379.4,159295189.3,255.189,80.72642237,-2738.68,10453.13,-1922.86,4.93,-34.141,8.498,104.789,-168.5,0.338,1.397,80.7995245,1595,7.25,0,154.8,1.2,7.2,197.4,115.8,244.2,32.4,35.4,140,2,1,33,103,1,6,7,80.72912189, pc_20251113_104808_190.laz,80.80463425, 20251113-104808.263389,1.763E+18
104808.3686,80.80419404, 20251113-10:48:08-350000,35.93920037,126.5488891,7.1456,4,1.4,371395384.6,159295186.7,255.15,80.82638991,-2732.68,10426.71,-2058.32,4.376,-34.129,8.189,104.794,-168.5,0.316,1.521,80.90182988,1526.5,0,0,176.4,1.8,3.6,196.2,105.6,233.4,33,33.6,121,1,1,16,102,7,8,6,80.82986793, pc_20251113_104808_291.laz,80.90014709, 20251113-104808.358914,1.763E+18
104808.4688,80.90406847, 20251113-10:48:08-450000,35.93920043,126.548889,7.1546,4,1.5,371395391.1,159295182.9,255.121,80.92642621,-2726.52,10404.39,-2162.57,4.044,-34.155,7.928,104.793,-168.6,0.299,1.694,81.00024156,1542.5,3.8,0,184.8,3,3.6,196.2,100.8,220.8,33,33,93,4,0,6,102,1,6,10,80.93031394, pc_20251113_104808_391.laz,81.00203564, 20251113-104808.460792,1.763E+18
104808.5682,81.00374745, 20251113-10:48:08-550000,35.93920052,126.548889,7.1662,4,1.5,371395401.2,159295179.5,255.165,81.02653806,-2725.26,10392.64,-2213.43,3.894,-34.153,7.746,104.802,-168.6,0.298,1.789,81.09937856,1560.5,8.05,0,180.6,3,9.6,195,95.4,208.8,32.4,31.8,19,2,4,5,98,9,6,7,81.02996786, pc_20251113_104808_491.laz,81.10212411, 20251113-104808.560893,1.763E+18
104808.6686,81.10391677, 20251113-10:48:08-650000,35.93920056,126.548889,7.1689,4,1.6,371395405.3,159295179.6,255.172,81.12643599,-2726.28,10390.64,-2210.73,3.955,-34.153,7.447,104.81,-168.6,0.3,1.787,81.19902251,1561.5,5.9,0,170.4,3,13.8,194.4,89.4,201,31.8,31.2,11,66,0,4,84,6,7,5,81.12966555, pc_20251113_104808_591.laz,81.20261653, 20251113-104808.661406,1.763E+18
104808.7684,81.20416131, 20251113-10:48:08-750000,35.9392005,126.548889,7.1588,4,1.8,371395398.7,159295182.3,255.151,81.22638053,-2728.18,10397.72,-2174.92,3.959,-34.131,7.372,104.807,-168.6,0.314,1.597,81.29915835,1560,5.45,0,159.6,3,18,193.8,87.6,196.2,31.2,30.6,22,104,3,5,81,5,4,3,81.22994043, pc_20251113_104808_691.laz,81.30476354, 20251113-104808.763514,1.763E+18
104808.8683,81.30406541, 20251113-10:48:08-850000,35.93920037,126.5488891,7.1397,4,1.9,371395384.6,159295187.6,255.125,81.32640189,-2730.22,10407.24,-2127.67,4.02,-34.122,7.376,104.802,-168.6,0.332,1.409,81.39923092,1539.5,6.35,0,141,6,26.4,192.6,88.8,193.8,30.6,30,12,121,16,4,80,7,0,3,81.32987234, pc_20251113_104808_791.laz,81.4058235, 20251113-104808.864581,1.763E+18
104808.9688,81.40364123, 20251113-10:48:08-950000,35.93920027,126.5488891,7.1282,4,2,371395374.2,159295191.1,255.126,81.42648639,-2733.79,10416.55,-2085.5,4.135,-34.065,7.384,104.805,-168.6,0.353,1.323,81.49876371,1554.5,11.45,0,127.2,9,37.8,191.4,91.2,192.6,30,29.4,12,141,65,2,72,4,6,2,81.4304196, pc_20251113_104808_891.laz,81.49828738, 20251113-104808.957091,1.763E+18
104809.069,81.5034859, 20251113-10:48:09-050000,35.93920028,126.5488891,7.1289,4,2,371395374.7,159295191.4,255.148,81.52641306,-2732.38,10419.81,-2072.47,4.2,-34.057,7.39,104.794,-168.6,0.353,1.322,81.59914243,1551,9.15,0,132,5.4,37.2,190.8,91.2,192.6,29.4,28.8,10,155,105,9,67,8,2,2,81.52990579, pc_20251113_104808_991.laz,81.60232886, 20251113-104809.061055,1.763E+18
104809.1684,81.60342182, 20251113-10:48:09-150000,35.93920032,126.5488891,7.136,4,1.1,371395379.3,159295189.7,255.169,81.62640524,-2728.92,10417.17,-2085.85,4.234,-34.085,7.377,104.783,-168.6,0.331,1.413,81.69943987,1548,10.15,0,147,4.2,28.2,189.6,88.8,193.2,28.8,28.2,7,168,138,17,60,2,7,6,81.62928696, pc_20251113_104809_090.laz,81.67081106, 20251113-104809.129478,1.763E+18
104809.2684,81.70471334, 20251113-10:48:09-250000,35.93920038,126.548889,7.1427,4,1.3,371395385.2,159295185.9,255.182,81.72646133,-2723.72,10413.82,-2103.67,4.279,-34.121,7.358,104.764,-168.6,0.315,1.535,81.79919641,1547,10.7,0,162.6,4.2,24,188.4,87,193.8,28.2,27.6,8,179,160,15,43,1,5,7,81.7290498, pc_20251113_104809_190.laz,81.80273318, 20251113-104809.261515,1.763E+18
104809.3688,81.80416797, 20251113-10:48:09-350000,35.93920044,126.548889,7.1525,4,1.4,371395392.2,159295182.4,255.175,81.82656321,-2719.94,10411.47,-2106.88,4.423,-34.219,7.358,104.751,-168.6,0.297,1.654,81.89923039,1543.5,11.95,0,158.4,4.2,34.8,190.2,86.4,193.8,28.2,27.6,8,186,175,14,26,7,4,8,81.83002388, pc_20251113_104809_291.laz,81.90257205, 20251113-104809.361343,1.763E+18
104809.4686,81.90443746, 20251113-10:48:09-450000,35.93920047,126.548889,7.1569,4,1.5,371395395.1,159295181.9,255.184,81.92640383,-2715.36,10403.75,-2101.71,4.581,-34.579,7.365,104.738,-168.6,0.298,1.637,81.99962866,1541.5,13.25,0,155.4,3.6,40.8,196.2,86.4,193.8,27.6,27,8,191,185,12,15,1,6,7,81.92937864, pc_20251113_104809_390.laz,81.99986016, 20251113-104809.458615,1.763E+18
104809.5682,82.00378773, 20251113-10:48:09-550000,35.93920041,126.548889,7.1481,4,1.5,371395388.4,159295184.8,255.202,82.02644668,-2710.88,10389.72,-2096.59,4.689,-35.155,7.373,104.73,-168.6,0.318,1.483,82.0991386,1535.5,15.95,0,152.4,4.8,42.6,202.2,87,193.8,27,26.4,12,193,191,11,9,4,4,5,82.02918444, pc_20251113_104809_490.laz,82.10270494, 20251113-104809.561488,1.763E+18
104809.6684,82.103844, 20251113-10:48:09-650000,35.93920031,126.548889,7.1339,4,1.6,371395377.7,159295189.2,255.197,82.12642393,-2704.79,10369.32,-2095.35,4.955,-35.923,7.362,104.723,-168.6,0.336,1.425,82.19918609,1544.5,17.35,0,142.8,5.4,46.8,199.2,87.6,193.2,26.4,25.8,7,207,196,7,5,1,4,4,82.12963342, pc_20251113_104809_590.laz,82.20257997, 20251113-104809.661368,1.763E+18
104809.7683,82.20389204, 20251113-10:48:09-750000,35.9392003,126.548889,7.1354,4,0.8,371395376.7,159295189.5,255.214,82.22653412,-2695.81,10343.84,-2103.25,5.301,-36.817,7.385,104.713,-168.6,0.321,1.448,82.2995026,1538,19.45,0,141.6,5.4,46.2,189.6,88.8,193.2,26.4,25.2,6,211,202,6,6,3,4,3,82.23035129, pc_20251113_104809_692.laz,82.30261798, 20251113-104809.761398,1.763E+18
104809.8695,82.30366668, 20251113-10:48:09-850000,35.93920033,126.548889,7.1423,4,0.9,371395379.8,159295186.5,255.228,82.32641202,-2680.72,10305.05,-2131.29,5.652,-38.029,7.38,104.686,-168.6,0.324,1.456,82.39892438,1541.5,28.2,0,146.4,5.4,41.4,186.6,88.8,192.6,25.2,24.6,5,212,204,2,5,2,6,4,82.33003616, pc_20251113_104809_791.laz,82.40380872, 20251113-104809.862582,1.763E+18
104809.9683,82.40344537, 20251113-10:48:09-950000,35.93920034,126.548889,7.1463,4,0.9,371395380.5,159295185.8,255.255,82.42644087,-2666.76,10253.5,-2171.13,6.051,-39.515,7.4,104.683,-168.6,0.326,1.47,82.49936534,1556,28.45,0,148.8,5.4,43.8,187.2,89.4,192.6,25.2,24.6,3,216,206,6,5,0,6,2,82.42997358, pc_20251113_104809_891.laz,82.50266434, 20251113-104809.961445,1.763E+18
104810.0683,82.50346546, 20251113-10:48:10-050000,35.93920034,126.548889,7.1468,4,1,371395380.4,159295187,255.276,82.52639358,-2649.3,10202.78,-2203.09,6.492,-40.988,7.405,104.662,-168.6,0.314,1.492,82.59949891,1570.5,30.95,0,148.2,5.4,49.8,185.4,92.4,191.4,24.6,24,3,218,209,3,5,5,4,2,82.53116157, pc_20251113_104809_992.laz,82.60103887, 20251113-104810.059818,1.763E+18
104810.1685,82.60338212, 20251113-10:48:10-150000,35.93920033,126.548889,7.1468,4,1.1,371395378.6,159295186.7,255.314,82.62642901,-2632.35,10153.23,-2224,6.94,-42.441,7.427,104.638,-168.7,0.322,1.475,82.69873853,1581.5,29.2,0,143.4,6,52.2,181.2,94.2,190.2,24.6,23.4,0,220,213,1,5,2,2,6,82.62971472, pc_20251113_104810_090.laz,82.70370963, 20251113-104810.162475,1.763E+18
104810.2682,82.70455269, 20251113-10:48:10-250000,35.93920031,126.548889,7.1462,4,1.3,371395376.5,159295187.7,255.346,82.7264145,-2615.83,10103.24,-2232.86,7.456,-43.919,7.427,104.618,-168.7,0.329,1.45,82.79949288,1584,29.05,0,141,6,52.8,174.6,94.8,190.2,24,23.4,2,220,212,3,4,3,5,5,82.72981756, pc_20251113_104810_190.laz,82.79940645, 20251113-104810.258174,1.763E+18
104810.3691,82.80442472, 20251113-10:48:10-350000,35.93920028,126.548889,7.1463,4,1.4,371395373.4,159295189.1,255.367,82.82642565,-2598.34,10051.95,-2239.46,7.999,-45.402,7.423,104.596,-168.7,0.332,1.441,82.8994746,1586.5,29.4,0,139.8,6,52.8,168,96,189.6,23.4,22.8,1,222,215,1,4,7,1,2,82.82988763, pc_20251113_104810_291.laz,82.90134929, 20251113-104810.360107,1.763E+18
104810.4697,82.90435673, 20251113-10:48:10-450000,35.93920028,126.548889,7.1445,4,1.5,371395373.4,159295188.7,255.391,82.92647424,-2580.98,9999.99,-2239.53,8.596,-46.893,7.424,104.575,-168.7,0.333,1.452,82.99968548,1591,29.6,0,138.6,6,51.6,161.4,96,189.6,23.4,22.8,5,221,218,3,5,6,2,2,82.92967884, pc_20251113_104810_390.laz,83.00347141, 20251113-104810.462219,1.763E+18
104810.5685,83.00390595, 20251113-10:48:10-550000,35.93920029,126.5488889,7.1467,4,1.5,371395374.7,159295187.5,255.399,83.02643574,-2565.39,9945.76,-2234.26,9.213,-48.416,7.432,104.567,-168.7,0.333,1.444,83.09926044,1590.5,30.05,0,138.6,6,48.6,157.8,95.4,190.2,22.8,22.2,8,220,210,1,5,1,0,1,83.02998374, pc_20251113_104810_491.laz,83.10114441, 20251113-104810.559918,1.763E+18
104810.6683,83.10450061, 20251113-10:48:10-650000,35.93920029,126.548889,7.1448,4,1.6,371395373.9,159295188.7,255.383,83.12649296,-2549.79,9887.95,-2230.11,9.834,-49.96,7.401,104.563,-168.7,0.339,1.435,83.19944995,1598.5,30.55,0,138.6,6,46.8,156.6,93.6,190.8,23.4,21,7,222,211,1,4,2,5,2,83.13034606, pc_20251113_104810_591.laz,83.19993332, 20251113-104810.658709,1.763E+18
104810.7685,83.20372295, 20251113-10:48:10-750000,35.93920028,126.5488889,7.1432,4,1.8,371395373.6,159295189.2,255.388,83.22643085,-2531.14,9830.41,-2227.84,10.445,-51.472,7.407,104.544,-168.8,0.331,1.451,83.2993533,1601.5,29.9,0,141,6,46.8,157.2,93,190.8,22.8,20.4,0,220,211,5,3,1,0,2,83.22935504, pc_20251113_104810_690.laz,83.30248382, 20251113-104810.761262,1.763E+18
104810.869,83.30394937, 20251113-10:48:10-850000,35.93920029,126.5488889,7.1451,4,1.9,371395373.8,159295187.5,255.404,83.3264722,-2515.89,9770.63,-2225.22,11.031,-52.967,7.393,104.546,-168.8,0.33,1.446,83.39935419,1601,29.95,0,142.2,6,46.2,159,91.8,191.4,21.6,19.8,0,218,214,4,1,4,3,1,83.32945739, pc_20251113_104810_790.laz,83.40380208, 20251113-104810.862563,1.763E+18
104810.9682,83.40344201, 20251113-10:48:10-950000,35.93920028,126.5488889,7.1443,4,2,371395373.2,159295187.8,255.428,83.4264179,-2499.14,9710.39,-2221.18,11.624,-54.451,7.389,104.539,-168.8,0.333,1.45,83.49907329,1601.5,29.05,0,143.4,5.4,46.8,160.8,90.6,191.4,21.6,18,0,220,213,2,2,0,2,2,83.42974121, pc_20251113_104810_890.laz,83.50280801, 20251113-104810.961570,1.763E+18
104811.0688,83.50365193, 20251113-10:48:11-050000,35.93920027,126.5488889,7.1409,4,2,371395372.4,159295187.5,255.438,83.52647651,-2481.08,9650.34,-2215.05,12.199,-55.908,7.378,104.525,-168.8,0.333,1.437,83.59931044,1606,28.55,0,144,5.4,47.4,163.2,90,192,21,17.4,0,219,211,2,3,0,3,3,83.52944809, pc_20251113_104810_990.laz,83.60436464, 20251113-104811.063096,1.763E+18
104811.1682,83.60480542, 20251113-10:48:11-150000,35.93920027,126.5488889,7.1421,4,1.1,371395371.9,159295187.2,255.465,83.62646692,-2465.26,9588.94,-2210.07,12.783,-57.33,7.339,104.527,-168.8,0.329,1.452,83.69932109,1600,28.1,0,145.8,5.4,48,165.6,89.4,192,19.8,17.4,1,218,212,1,2,0,5,1,83.62939744, pc_20251113_104811_090.laz,83.70369816, 20251113-104811.162455,1.763E+18
104811.2683,83.70466332, 20251113-10:48:11-250000,35.93920027,126.5488889,7.1428,4,1.3,371395372.2,159295188.4,255.449,83.72642862,-2448.68,9526.54,-2203.49,13.371,-58.764,7.344,104.525,-168.8,0.325,1.468,83.79961818,1599.5,28.4,0,146.4,5.4,49.8,167.4,88.8,192.6,18.6,16.8,0,216,214,3,4,1,4,2,83.7291775, pc_20251113_104811_190.laz,83.79966381, 20251113-104811.258474,1.763E+18
104811.3682,83.80465791, 20251113-10:48:11-350000,35.93920028,126.5488889,7.144,4,1.4,371395373,159295187.7,255.449,83.82642673,-2432.79,9463.6,-2197.05,13.911,-60.156,7.299,104.527,-168.8,0.33,1.449,83.8993991,1601.5,28.2,0,146.4,6,50.4,169.2,88.8,192.6,17.4,16.2,0,216,216,1,2,1,6,0,83.82958141, pc_20251113_104811_290.laz,83.9049393, 20251113-104811.363668,1.763E+18
