ts(Global),ts(GNSS),ts(GNSS time),LLH(latitude),LLH(longitude),LLH(altitude),GNSS_qual,GNSS_age,TM(north),TM(east),Heading(GPS),ts(bucket - MC),bucket_x,bucket_y,bucket_z,slope_boom,slope_arm,slope_bucket,swing_angle,track_angle,body_roll,body_pitch,ts(Engine),rpm,fuel_consumption_rate,ts(pressure),p_boom_up,p_boom_down,p_arm_in,p_arm_out,p_bkt_in,p_bkt_out,p_swing_left,p_swing_right,p_pilot_boom_up,p_pilot_boom_down,p_pilot_arm_in,p_pilot_arm_out,p_pilot_bkt_in,p_pilot_bkt_out,p_pilot_swing_left,p_pilot_swing_right,ts(pc),laz_file_name,ts(svo_cam),ts_svo_cam,svo_timestamp,
153828.881065, 600.047594871, 20260310-15:38:28-850000, 35.93917372666667, 126.54887125666667, 6.724600000000002, 4, 1.9, 371392286.2197, 159294208.1052, 268.083, 600.065801765, -317.00, 10108.97, -2490.91, 7.059, -55.026, 24.441, 91.899, -2.100, 0.296, 1.033, 600.097362125, 1349.0, 9.450, 0.0, 141.00, 3.00, 46.20, 163.20, 59.40, 144.00, 3.00, 2.40, 162.000, 3.000, 135.000, 7.000, 3.000, 3.000, 4.000, 4.000, 600.080514721, pc_20260310_153828_850.laz, 600.092947662, 20260310-153828.858437, 1773124708758764000
153828.970643, 600.147758545, 20260310-15:38:28-950000, 35.93917372166667, 126.54887126666667, 6.726300000000002, 4, 2.0, 371392285.7121, 159294208.8699, 268.072, 600.165828728, -317.14, 10097.59, -2495.76, 7.127, -55.290, 24.447, 91.901, -2.100, 0.296, 1.030, 600.197179669, 1349.5, 10.700, 0.0, 140.40, 3.00, 50.40, 171.00, 60.00, 143.40, 3.00, 2.40, 171.000, 4.000, 134.000, 5.000, 3.000, 2.000, 1.000, 3.000, 600.180212086, pc_20260310_153828_950.laz, 600.190741162, 20260310-153828.956215, 1773124708858747000
153829.070937, 600.248900899, 20260310-15:38:29-050000, 35.939173718333336, 126.548871265, 6.724600000000002, 4, 2.0, 371392285.3630, 159294208.6725, 268.084, 600.265807735, -316.94, 10087.35, -2495.03, 7.228, -55.560, 24.451, 91.902, -2.100, 0.295, 1.026, 600.296939452, 1347.5, 11.750, 0.0, 141.60, 3.00, 53.40, 178.20, 60.00, 143.40, 3.00, 2.40, 175.000, 3.000, 138.000, 4.000, 2.000, 4.000, 4.000, 9.000, 600.279970762, pc_20260310_153829_050.laz, 600.293360847, 20260310-153829.058823, 1773124708958751000
153829.170611, 600.347275286, 20260310-15:38:29-150000, 35.93917372, 126.54887126833333, 6.7265000000000015, 4, 1.1, 371392285.5507, 159294208.9477, 268.096, 600.365809283, -316.68, 10077.63, -2491.96, 7.354, -55.827, 24.440, 91.903, -2.100, 0.295, 1.032, 600.397588374, 1346.5, 13.150, 0.0, 143.40, 3.00, 55.80, 185.40, 59.40, 144.00, 3.00, 2.40, 180.000, 3.000, 141.000, 4.000, 4.000, 5.000, 3.000, 4.000, 600.380696944, pc_20260310_153829_153.laz, 600.390301017, 20260310-153829.155775, 1773124709058748000
153829.270668, 600.448171084, 20260310-15:38:29-250000, 35.939173716666666, 126.54887126333334, 6.726600000000001, 4, 1.3, 371392285.1636, 159294208.5222, 268.076, 600.465799282, -316.31, 10068.49, -2486.27, 7.499, -56.097, 24.437, 91.902, -2.100, 0.297, 1.041, 600.497537537, 1350.0, 13.100, 0.0, 145.20, 3.00, 58.20, 192.00, 58.20, 144.00, 3.00, 2.40, 178.000, 6.000, 142.000, 3.000, 6.000, 2.000, 8.000, 3.000, 600.480142072, pc_20260310_153829_251.laz, 600.491520415, 20260310-153829.257003, 1773124709158734000
153829.370470, 600.548547107, 20260310-15:38:29-350000, 35.93917372, 126.54887125833334, 6.727, 4, 1.4, 371392285.4800, 159294208.2459, 268.085, 600.565808326, -315.34, 10059.91, -2476.08, 7.657, -56.379, 24.438, 91.899, -2.100, 0.296, 1.035, 600.598055128, 1352.5, 13.300, 0.0, 144.00, 3.00, 60.60, 198.00, 57.60, 144.00, 3.00, 2.40, 184.000, 6.000, 153.000, 7.000, 3.000, 8.000, 5.000, 6.000, 600.580473831, pc_20260310_153829_352.laz, 600.593944224, 20260310-153829.359373, 1773124709258738000
153829.470460, 600.647862998, 20260310-15:38:29-450000, 35.939173716666666, 126.54887126333334, 6.7276000000000025, 4, 1.5, 371392285.0626, 159294208.8499, 268.09, 600.665799953, -314.50, 10051.09, -2463.80, 7.830, -56.679, 24.437, 91.895, -2.100, 0.298, 1.024, 600.697445271, 1353.0, 13.150, 0.0, 142.20, 3.00, 63.60, 200.40, 57.60, 144.00, 3.00, 2.40, 182.000, 4.000, 165.000, 3.000, 4.000, 4.000, 8.000, 4.000, 600.680501464, pc_20260310_153829_450.laz, 600.693884267, 20260310-153829.459319, 1773124709358750000
153829.571415, 600.748469051, 20260310-15:38:29-550000, 35.939173716666666, 126.54887127166667, 6.728200000000005, 4, 1.5, 371392285.0692, 159294209.5846, 268.069, 600.76580172, -314.07, 10040.09, -2453.24, 8.015, -57.021, 24.437, 91.896, -2.100, 0.296, 1.020, 600.797931054, 1355.0, 13.900, 0.0, 139.80, 3.60, 63.00, 195.00, 57.60, 144.00, 3.60, 3.00, 182.000, 5.000, 171.000, 3.000, 7.000, 2.000, 4.000, 7.000, 600.780180312, pc_20260310_153829_550.laz, 600.793717491, 20260310-153829.559182, 1773124709458768000
153829.670799, 600.847908486, 20260310-15:38:29-650000, 35.939173708333335, 126.54887127833334, 6.7280000000000015, 4, 1.6, 371392284.1200, 159294210.2224, 268.078, 600.86579739, -313.35, 10023.13, -2448.56, 8.220, -57.472, 24.436, 91.895, -2.100, 0.297, 1.028, 600.897367054, 1361.5, 14.650, 0.0, 138.00, 3.60, 60.00, 187.80, 57.60, 144.00, 3.60, 2.40, 184.000, 6.000, 174.000, 4.000, 4.000, 5.000, 5.000, 6.000, 600.879360397, pc_20260310_153829_650.laz, 600.891907736, 20260310-153829.657362, 1773124709558759000
153829.770745, 600.948370644, 20260310-15:38:29-750000, 35.939173706666665, 126.54887127833334, 6.729600000000001, 4, 1.8, 371392283.9230, 159294210.2707, 268.056, 600.96579534, -312.32, 9999.37, -2450.96, 8.414, -58.043, 24.437, 91.894, -2.100, 0.294, 1.023, 600.99755795, 1362.0, 14.850, 0.0, 139.80, 3.60, 56.40, 181.80, 57.60, 144.00, 3.60, 3.00, 186.000, 12.000, 177.000, 6.000, 4.000, 3.000, 3.000, 6.000, 600.979113039, pc_20260310_153829_749.laz, 600.992037479, 20260310-153829.757499, 1773124709658734000
153829.870433, 601.047623149, 20260310-15:38:29-850000, 35.939173708333335, 126.54887128, 6.729000000000003, 4, 1.9, 371392284.1513, 159294210.2998, 268.075, 601.065786277, -311.97, 9973.08, -2454.74, 8.621, -58.661, 24.435, 91.896, -2.100, 0.296, 1.022, 601.097239907, 1357.5, 14.700, 0.0, 140.40, 3.60, 53.40, 175.80, 57.60, 144.00, 3.60, 3.00, 188.000, 12.000, 180.000, 4.000, 2.000, 2.000, 3.000, 3.000, 601.079213995, pc_20260310_153829_848.laz, 601.093563284, 20260310-153829.859029, 1773124709758902000
153829.970443, 601.149315878, 20260310-15:38:29-950000, 35.939173708333335, 126.54887128666667, 6.727800000000002, 4, 2.0, 371392284.1795, 159294210.8146, 268.087, 601.165819606, -311.28, 9944.14, -2459.84, 8.840, -59.326, 24.430, 91.898, -2.100, 0.294, 1.023, 601.197200527, 1356.5, 15.950, 0.0, 141.00, 3.60, 51.00, 170.40, 57.60, 144.00, 3.60, 3.00, 187.000, 5.000, 182.000, 4.000, 2.000, 7.000, 7.000, 5.000, 601.181620722, pc_20260310_153829_953.laz, 601.187008275, 20260310-153829.952510, 1773124709858751000
153830.070522, 601.24985778, 20260310-15:38:30-050000, 35.93917370166667, 126.54887129666666, 6.728800000000003, 4, 2.0, 371392283.4567, 159294211.6418, 268.044, 601.265856715, -310.42, 9910.98, -2465.32, 9.093, -60.079, 24.422, 91.900, -2.100, 0.293, 1.028, 601.297489633, 1357.0, 16.450, 0.0, 142.80, 3.60, 49.20, 166.20, 57.60, 144.00, 3.60, 3.00, 188.000, 4.000, 183.000, 4.000, 2.000, 4.000, 6.000, 3.000, 601.280438636, pc_20260310_153830_051.laz, 601.289650136, 20260310-153830.055121, 1773124709958748000
153830.170465, 601.348498677, 20260310-15:38:30-150000, 35.939173695, 126.54887130166667, 6.728400000000004, 4, 1.1, 371392282.7398, 159294212.0196, 268.049, 601.365818042, -309.71, 9875.18, -2470.22, 9.360, -60.886, 24.418, 91.901, -2.100, 0.298, 1.026, 601.397656817, 1352.0, 17.550, 0.0, 142.20, 3.60, 48.00, 163.20, 57.60, 144.00, 3.60, 3.00, 189.000, 4.000, 189.000, 5.000, 2.000, 3.000, 8.000, 3.000, 601.379830461, pc_20260310_153830_150.laz, 601.390517623, 20260310-153830.155999, 1773124710058754000
153830.270988, 601.448044082, 20260310-15:38:30-250000, 35.93917370333333, 126.548871305, 6.728900000000003, 4, 1.3, 371392283.6584, 159294212.3547, 268.067, 601.465861899, -308.37, 9835.44, -2476.27, 9.640, -61.764, 24.406, 91.901, -2.100, 0.299, 1.019, 601.497390391, 1347.5, 18.400, 0.0, 142.20, 3.60, 48.00, 162.00, 57.60, 144.00, 3.60, 3.60, 195.000, 3.000, 194.000, 5.000, 3.000, 4.000, 5.000, 8.000, 601.479639706, pc_20260310_153830_250.laz, 601.490380416, 20260310-153830.255855, 1773124710158739000
153830.370428, 601.547836847, 20260310-15:38:30-350000, 35.93917371166667, 126.54887130333333, 6.729400000000002, 4, 1.4, 371392284.5285, 159294212.3618, 268.056, 601.565849182, -306.23, 9793.69, -2479.65, 9.960, -62.692, 24.408, 91.897, -2.100, 0.293, 1.022, 601.597603144, 1350.0, 20.450, 0.0, 144.00, 3.60, 48.00, 162.60, 57.60, 144.00, 4.20, 3.60, 200.000, 2.000, 191.000, 2.000, 4.000, 0.000, 7.000, 3.000, 601.580598206, pc_20260310_153830_351.laz, 601.591476932, 20260310-153830.356980, 1773124710258724000
153830.471214, 601.648345017, 20260310-15:38:30-450000, 35.939173708333335, 126.548871305, 6.729300000000002, 4, 1.5, 371392284.1639, 159294212.4773, 268.065, 601.665853769, -304.93, 9750.78, -2480.98, 10.302, -63.641, 24.409, 91.898, -2.100, 0.293, 1.028, 601.698561257, 1352.5, 20.300, 0.0, 144.60, 4.20, 49.20, 163.80, 57.60, 144.00, 4.20, 3.60, 200.000, 3.000, 192.000, 5.000, 2.000, 3.000, 2.000, 2.000, 601.679127289, pc_20260310_153830_449.laz, 601.686855852, 20260310-153830.452348, 1773124710359578000
153830.571012, 601.749229246, 20260310-15:38:30-550000, 35.939173706666665, 126.54887131666666, 6.730100000000004, 4, 1.5, 371392284.0125, 159294213.4310, 268.068, 601.765868705, -303.96, 9706.76, -2479.11, 10.658, -64.617, 24.408, 91.900, -2.100, 0.297, 1.023, 601.798430066, 1353.0, 20.400, 0.0, 142.80, 4.20, 49.80, 163.80, 57.60, 144.00, 4.20, 3.60, 202.000, 3.000, 197.000, 4.000, 4.000, 6.000, 1.000, 7.000, 601.779814158, pc_20260310_153830_550.laz, 601.798949821, 20260310-153830.564325, 1773124710458720000
153830.670534, 601.848760808, 20260310-15:38:30-650000, 35.939173715, 126.548871325, 6.730600000000003, 4, 1.6, 371392284.9909, 159294214.0494, 268.07, 601.865829663, -303.05, 9661.42, -2475.89, 11.022, -65.612, 24.410, 91.903, -2.100, 0.300, 1.013, 601.897667022, 1355.5, 20.800, 0.0, 140.40, 4.20, 50.40, 162.60, 57.60, 144.00, 4.20, 3.60, 201.000, 2.000, 197.000, 5.000, 4.000, 2.000, 3.000, 3.000, 601.879743862, pc_20260310_153830_650.laz, 601.888932881, 20260310-153830.654401, 1773124710558824000
153830.770489, 601.948672122, 20260310-15:38:30-750000, 35.939173705, 126.54887132166667, 6.731100000000001, 4, 0.8, 371392283.9293, 159294213.5992, 268.092, 601.965868438, -301.81, 9613.37, -2474.81, 11.398, -66.639, 24.416, 91.906, -2.100, 0.296, 1.020, 601.998089539, 1357.0, 20.800, 0.0, 140.40, 4.20, 51.00, 162.00, 57.60, 144.00, 4.80, 3.60, 203.000, 2.000, 197.000, 4.000, 6.000, 2.000, 2.000, 3.000, 601.979784012, pc_20260310_153830_750.laz, 601.991633272, 20260310-153830.757082, 1773124710658883000
153830.870889, 602.047974667, 20260310-15:38:30-850000, 35.93917370166667, 126.548871315, 6.730400000000003, 4, 0.9, 371392283.6131, 159294212.8577, 268.106, 602.065843688, -300.52, 9563.25, -2473.56, 11.775, -67.690, 24.413, 91.909, -2.100, 0.294, 1.019, 602.097438689, 1361.5, 20.650, 0.0, 139.20, 4.20, 51.60, 162.00, 57.60, 144.00, 4.80, 4.20, 200.000, 5.000, 197.000, 4.000, 5.000, 3.000, 6.000, 8.000, 602.080018469, pc_20260310_153830_850.laz, 602.089915199, 20260310-153830.855382, 1773124710758718000
153830.971455, 602.149961952, 20260310-15:38:30-950000, 35.93917369333333, 126.54887130666667, 6.729700000000005, 4, 0.9, 371392282.7012, 159294212.0654, 268.097, 602.16593803, -299.07, 9510.67, -2473.68, 12.153, -68.768, 24.411, 91.910, -2.100, 0.298, 1.021, 602.198808875, 1360.0, 20.600, 0.0, 139.20, 4.20, 52.20, 162.00, 57.60, 144.00, 4.80, 4.20, 201.000, 4.000, 203.000, 3.000, 6.000, 2.000, 4.000, 5.000, 602.18254955, pc_20260310_153830_954.laz, 602.190763005, 20260310-153830.956254, 1773124710858710000
153831.070581, 602.249447003, 20260310-15:38:31-050000, 35.93917368666666, 126.54887129166667, 6.728300000000001, 4, 1.0, 371392281.8954, 159294210.9299, 268.121, 602.265857396, -296.49, 9454.89, -2474.79, 12.527, -69.887, 24.409, 91.905, -2.100, 0.299, 1.014, 602.297428441, 1357.0, 20.900, 0.0, 140.40, 4.20, 53.40, 163.20, 57.60, 144.00, 5.40, 4.20, 200.000, 0.000, 207.000, 3.000, 4.000, 0.000, 6.000, 3.000, 602.279287003, pc_20260310_153831_048.laz, 602.29173811, 20260310-153831.057185, 1773124710958709000
153831.171084, 602.34729006, 20260310-15:38:31-150000, 35.93917368666666, 126.54887129833334, 6.728100000000001, 4, 1.1, 371392281.8931, 159294211.5364, 268.121, 602.365812847, -294.47, 9399.85, -2472.26, 12.913, -71.012, 24.497, 91.905, -2.100, 0.295, 1.013, 602.397361316, 1357.5, 20.950, 0.0, 138.00, 4.20, 54.60, 163.80, 57.60, 144.00, 5.40, 4.80, 198.000, 5.000, 202.000, 6.000, 6.000, 6.000, 6.000, 3.000, 602.3783713, pc_20260310_153831_146.laz, 602.391530502, 20260310-153831.157000, 1773124711058870000
153831.270473, 602.447371404, 20260310-15:38:31-250000, 35.93917369166667, 126.54887130666667, 6.728600000000004, 4, 1.3, 371392282.4490, 159294212.2843, 268.108, 602.465797841, -292.41, 9338.14, -2476.49, 13.294, -72.171, 24.404, 91.905, -2.100, 0.293, 1.011, 602.497327375, 1360.0, 21.200, 0.0, 138.00, 3.60, 55.80, 164.40, 57.60, 144.00, 5.40, 4.80, 201.000, 10.000, 203.000, 3.000, 3.000, 4.000, 7.000, 4.000, 602.478372342, pc_20260310_153831_246.laz, 602.49255716, 20260310-153831.258004, 1773124711158745000
153831.370820, 602.547382208, 20260310-15:38:31-350000, 35.939173698333335, 126.54887130833333, 6.7285, 4, 1.4, 371392283.2183, 159294212.3561, 268.099, 602.565800408, -290.84, 9276.21, -2477.78, 13.680, -73.352, 24.406, 91.907, -2.100, 0.298, 1.008, 602.597861223, 1360.0, 21.500, 0.0, 138.00, 4.20, 57.00, 165.00, 57.60, 144.00, 5.40, 4.80, 202.000, 11.000, 208.000, 6.000, 1.000, 0.000, 6.000, 3.000, 602.578575925, pc_20260310_153831_346.laz, 602.589992829, 20260310-153831.355454, 1773124711258757000
153831.470755, 602.6471656, 20260310-15:38:31-450000, 35.939173698333335, 126.54887131, 6.726800000000001, 4, 1.5, 371392283.2074, 159294212.5222, 268.094, 602.665837977, -288.70, 9211.74, -2479.97, 14.072, -74.554, 24.403, 91.906, -2.100, 0.299, 1.013, 602.697312967, 1358.0, 22.150, 0.0, 136.80, 4.20, 57.60, 165.00, 57.60, 144.00, 6.00, 5.40, 205.000, 6.000, 209.000, 3.000, 0.000, 2.000, 2.000, 3.000, 602.678560136, pc_20260310_153831_446.laz, 602.689048565, 20260310-153831.454501, 1773124711358712000
153831.570934, 602.747642663, 20260310-15:38:31-550000, 35.939173708333335, 126.54887131833334, 6.7287, 4, 1.5, 371392284.3155, 159294213.2803, 268.08, 602.765803599, -286.32, 9144.07, -2482.59, 14.463, -75.793, 24.398, 91.906, -2.100, 0.296, 1.012, 602.797015725, 1357.5, 22.300, 0.0, 138.00, 4.20, 58.20, 165.00, 57.60, 144.00, 6.00, 5.40, 204.000, 2.000, 207.000, 5.000, 1.000, 3.000, 0.000, 7.000, 602.778755528, pc_20260310_153831_547.laz, 602.790130104, 20260310-153831.555635, 1773124711458724000
153831.671263, 602.848343613, 20260310-15:38:31-650000, 35.93917371333333, 126.548871325, 6.730500000000003, 4, 1.6, 371392284.8735, 159294213.8709, 268.088, 602.865808723, -284.07, 9075.96, -2484.43, 14.851, -77.023, 24.396, 91.907, -2.100, 0.294, 1.011, 602.898051471, 1359.0, 21.750, 0.0, 136.20, 4.20, 59.40, 165.00, 57.60, 144.00, 6.60, 6.00, 203.000, 1.000, 210.000, 3.000, 3.000, 7.000, 6.000, 4.000, 602.878540555, pc_20260310_153831_646.laz, 602.889049229, 20260310-153831.654497, 1773124711558732000
153831.770945, 602.948392916, 20260310-15:38:31-750000, 35.939173708333335, 126.548871325, 6.727800000000002, 4, 0.8, 371392284.2964, 159294213.9473, 268.064, 602.965868164, -281.60, 9006.97, -2485.32, 15.233, -78.255, 24.398, 91.905, -2.100, 0.296, 1.004, 602.997359116, 1355.0, 21.900, 0.0, 136.20, 4.20, 59.40, 164.40, 58.20, 144.00, 6.60, 6.00, 206.000, 0.000, 205.000, 1.000, 3.000, 1.000, 2.000, 3.000, 602.978997914, pc_20260310_153831_747.laz, 602.990318068, 20260310-153831.755822, 1773124711658704000
153831.870440, 603.047605506, 20260310-15:38:31-850000, 35.939173708333335, 126.54887132666667, 6.726400000000002, 4, 0.9, 371392284.3190, 159294214.0266, 268.064, 603.065817989, -279.59, 8937.89, -2483.65, 15.634, -79.482, 24.399, 91.906, -2.100, 0.298, 1.005, 603.097406009, 1354.5, 22.300, 0.0, 136.20, 4.20, 60.60, 163.80, 58.20, 144.00, 7.20, 6.00, 205.000, 0.000, 206.000, 2.000, 4.000, 6.000, 1.000, 7.000, 603.078569999, pc_20260310_153831_846.laz, 603.091814337, 20260310-153831.857300, 1773124711758718000
153831.971294, 603.147766222, 20260310-15:38:31-950000, 35.93917371333333, 126.548871325, 6.727400000000003, 4, 0.9, 371392285.0087, 159294213.4820, 268.073, 603.165823041, -278.52, 8868.00, -2481.16, 16.041, -80.706, 24.399, 91.915, -2.100, 0.298, 1.013, 603.197689516, 1356.5, 22.200, 0.0, 135.60, 4.20, 60.60, 162.00, 58.80, 143.40, 7.20, 6.60, 206.000, 2.000, 206.000, 4.000, 1.000, 0.000, 0.000, 1.000, 603.178721103, pc_20260310_153831_946.laz, 603.193630132, 20260310-153831.959115, 1773124711858736000
153832.071421, 603.249864009, 20260310-15:38:32-050000, 35.939173716666666, 126.54887132666667, 6.726000000000003, 4, 1.0, 371392285.5995, 159294213.0320, 268.073, 603.265832066, -278.07, 8797.04, -2476.10, 16.447, -81.943, 24.402, 91.927, -2.100, 0.298, 1.005, 603.297552245, 1357.0, 22.150, 0.0, 134.40, 4.20, 60.00, 161.40, 58.80, 143.40, 7.80, 6.60, 204.000, 0.000, 208.000, 0.000, 2.000, 4.000, 1.000, 2.000, 603.278682186, pc_20260310_153832_046.laz, 603.290050803, 20260310-153832.055533, 1773124711959015000
153832.170419, 603.34750351, 20260310-15:38:32-150000, 35.939173715, 126.54887133166666, 6.727800000000002, 4, 1.1, 371392285.7982, 159294212.4226, 268.052, 603.365829727, -279.00, 8723.81, -2471.20, 16.851, -83.197, 24.397, 91.949, -2.100, 0.300, 0.994, 603.397803398, 1354.5, 22.100, 0.0, 135.00, 4.20, 60.00, 161.40, 58.20, 143.40, 7.80, 6.60, 206.000, 0.000, 212.000, 5.000, 0.000, 3.000, 3.000, 6.000, 603.379049648, pc_20260310_153832_146.laz, 603.38832425, 20260310-153832.153821, 1773124712058721000
153832.270812, 603.44784828, 20260310-15:38:32-250000, 35.93917371166667, 126.54887134833334, 6.7272, 4, 1.3, 371392285.5443, 159294213.5690, 268.025, 603.465955025, -277.60, 8648.70, -2467.47, 17.258, -84.459, 24.392, 91.957, -2.100, 0.301, 0.997, 603.497353897, 1353.0, 22.500, 0.0, 135.60, 4.20, 60.00, 161.40, 58.20, 144.00, 7.80, 7.20, 203.000, 4.000, 208.000, 3.000, 4.000, 0.000, 2.000, 1.000, 603.478580493, pc_20260310_153832_246.laz, 603.493033644, 20260310-153832.258509, 1773124712158689000
153832.371698, 603.547972877, 20260310-15:38:32-350000, 35.93917370333333, 126.54887134333333, 6.7265000000000015, 4, 1.4, 371392284.5989, 159294213.1543, 268.026, 603.565837332, -274.70, 8573.41, -2462.52, 17.673, -85.712, 24.387, 91.956, -2.100, 0.296, 1.008, 603.597811359, 1356.0, 22.200, 0.0, 135.00, 4.20, 59.40, 161.40, 57.60, 144.00, 7.80, 7.20, 206.000, 6.000, 213.000, 2.000, 2.000, 3.000, 5.000, 1.000, 603.579436574, pc_20260310_153832_347.laz, 603.592230022, 20260310-153832.357675, 1773124712258692000
153832.470553, 603.647636251, 20260310-15:38:32-450000, 35.939173698333335, 126.54887134333333, 6.7285, 4, 1.5, 371392284.1932, 159294212.7359, 268.036, 603.66582711, -273.58, 8496.85, -2456.42, 18.076, -86.973, 24.386, 91.964, -2.100, 0.302, 1.004, 603.698115313, 1357.0, 22.200, 0.0, 136.20, 4.20, 60.00, 162.00, 57.60, 144.00, 8.40, 7.80, 204.000, 0.000, 211.000, 0.000, 6.000, 6.000, 2.000, 3.000, 603.680633392, pc_20260310_153832_449.laz, 603.69376402, 20260310-153832.459237, 1773124712358710000
153832.570788, 603.748104019, 20260310-15:38:32-550000, 35.93917369166667, 126.54887134333333, 6.727700000000002, 4, 1.5, 371392283.5482, 159294212.4971, 268.015, 603.765875049, -271.62, 8419.39, -2449.03, 18.475, -88.238, 24.384, 91.969, -2.100, 0.302, 0.992, 603.797636947, 1355.0, 22.200, 0.0, 136.20, 4.20, 60.00, 162.00, 57.00, 144.00, 8.40, 7.80, 205.000, 2.000, 210.000, 3.000, 4.000, 2.000, 2.000, 2.000, 603.779082814, pc_20260310_153832_547.laz, 603.790804768, 20260310-153832.556277, 1773124712458696000
153832.671777, 603.847246479, 20260310-15:38:32-650000, 35.93917369166667, 126.54887134833334, 6.727, 4, 1.6, 371392283.4509, 159294213.2039, 267.985, 603.865907698, -268.11, 8341.53, -2440.15, 18.896, -89.499, 24.381, 91.964, -2.100, 0.302, 0.997, 603.897441947, 1356.5, 22.400, 0.0, 135.00, 4.20, 60.60, 161.40, 57.00, 144.00, 8.40, 7.80, 202.000, 2.000, 212.000, 3.000, 0.000, 3.000, 0.000, 2.000, 603.878721499, pc_20260310_153832_646.laz, 603.890822956, 20260310-153832.656283, 1773124712558713000
153832.770433, 603.948122839, 20260310-15:38:32-750000, 35.93917368166667, 126.54887134666667, 6.726400000000002, 4, 1.8, 371392282.3401, 159294213.0484, 267.984, 603.96587205, -265.29, 8262.47, -2430.68, 19.313, -90.765, 24.379, 91.964, -2.100, 0.300, 1.000, 603.998431005, 1357.0, 22.250, 0.0, 135.00, 3.60, 60.60, 161.40, 57.00, 144.00, 9.00, 8.40, 197.000, 2.000, 207.000, 2.000, 3.000, 2.000, 2.000, 5.000, 603.978544448, pc_20260310_153832_746.laz, 603.923584879, 20260310-153832.689052, 1773124712592028000
153832.870902, 604.047017135, 20260310-15:38:32-850000, 35.93917368166667, 126.54887135166666, 6.724500000000003, 4, 1.9, 371392282.3033, 159294213.6007, 267.994, 604.065845377, -262.34, 8182.57, -2419.82, 19.729, -92.035, 24.378, 91.962, -2.100, 0.304, 0.997, 604.097754202, 1356.5, 22.300, 0.0, 133.80, 4.20, 61.80, 160.80, 57.00, 144.00, 9.00, 8.40, 192.000, 6.000, 210.000, 1.000, 2.000, 2.000, 3.000, 2.000, 604.078401431, pc_20260310_153832_846.laz, 603.923584879, 20260310-153832.689052, 1773124712592028000
153832.970652, 604.146911993, 20260310-15:38:32-950000, 35.93917368, 126.54887135166666, 6.724600000000002, 4, 2.0, 371392282.0342, 159294213.8646, 267.993, 604.16583828, -258.80, 8100.90, -2408.82, 20.134, -93.315, 24.374, 91.956, -2.100, 0.306, 0.985, 604.197538146, 1355.0, 22.250, 0.0, 132.60, 4.20, 61.80, 160.80, 57.00, 144.00, 9.00, 8.40, 189.000, 7.000, 212.000, 0.000, 2.000, 3.000, 4.000, 3.000, 604.178433351, pc_20260310_153832_946.laz, 603.923584879, 20260310-153832.689052, 1773124712592028000
153833.070937, 604.248662623, 20260310-15:38:33-050000, 35.93917367833333, 126.54887134666667, 6.722200000000004, 4, 2.0, 371392281.8055, 159294213.5474, 268.021, 604.265864025, -255.52, 8016.24, -2398.50, 20.543, -94.621, 24.371, 91.953, -2.100, 0.307, 0.983, 604.299425494, 1353.5, 22.650, 0.0, 132.60, 4.80, 63.00, 161.40, 57.00, 144.00, 9.00, 8.40, 187.000, 6.000, 206.000, 4.000, 0.000, 5.000, 5.000, 0.000, 604.278822744, pc_20260310_153833_046.laz, 603.923584879, 20260310-153832.689052, 1773124712592028000
153833.171231, 604.347891905, 20260310-15:38:33-150000, 35.939173675, 126.54887134, 6.7219000000000015, 4, 2.2, 371392281.4108, 159294213.0245, 268.029, 604.365930487, -252.12, 7929.99, -2388.75, 20.945, -95.932, 24.372, 91.952, -2.100, 0.302, 0.984, 604.398698931, 1357.5, 22.250, 0.0, 131.40, 4.80, 64.20, 161.40, 57.00, 144.00, 9.00, 8.40, 181.000, 0.000, 213.000, 3.000, 2.000, 3.000, 3.000, 4.000, 604.379224999, pc_20260310_153833_147.laz, 603.923584879, 20260310-153832.689052, 1773124712592028000
153833.270988, 604.447750172, 20260310-15:38:33-250000, 35.939173675, 126.54887133333334, 6.719400000000004, 4, 1.3, 371392281.3138, 159294212.6989, 268.058, 604.465947916, -248.36, 7840.42, -2379.46, 21.344, -97.271, 24.363, 91.946, -2.100, 0.305, 0.984, 604.49699705, 1359.0, 22.200, 0.0, 131.40, 5.40, 65.40, 160.80, 57.00, 144.00, 9.60, 8.40, 166.000, 3.000, 217.000, 4.000, 1.000, 0.000, 5.000, 6.000, 604.478765897, pc_20260310_153833_246.laz, 603.923584879, 20260310-153832.689052, 1773124712592028000
153833.370918, 604.547413498, 20260310-15:38:33-350000, 35.93917368, 126.54887132666667, 6.720600000000001, 4, 1.4, 371392281.7591, 159294212.4296, 268.081, 604.565935296, -244.23, 7744.85, -2371.57, 21.732, -98.674, 24.359, 91.939, -2.100, 0.307, 0.978, 604.596875556, 1355.5, 22.250, 0.0, 130.20, 5.40, 67.80, 160.80, 57.00, 144.00, 9.60, 9.00, 154.000, 1.000, 216.000, 0.000, 3.000, 3.000, 2.000, 3.000, 604.579062432, pc_20260310_153833_347.laz, 603.923584879, 20260310-153832.689052, 1773124712592028000
153833.470510, 604.647007831, 20260310-15:38:33-450000, 35.93917368, 126.54887132166667, 6.720900000000004, 4, 1.5, 371392281.6230, 159294212.3946, 268.083, 604.665861245, -239.37, 7640.61, -2367.21, 22.100, -100.165, 24.351, 91.931, -2.100, 0.303, 0.969, 604.697247256, 1350.5, 22.450, 0.0, 126.00, 6.00, 69.00, 160.80, 57.60, 144.00, 9.60, 9.00, 145.000, 0.000, 222.000, 3.000, 4.000, 0.000, 1.000, 1.000, 604.678492563, pc_20260310_153833_446.laz, 603.923584879, 20260310-153832.689052, 1773124712592028000
153833.570947, 604.747715623, 20260310-15:38:33-550000, 35.93917368, 126.54887131666666, 6.720100000000002, 4, 1.5, 371392281.5298, 159294212.2373, 268.098, 604.765868988, -234.50, 7525.51, -2368.66, 22.434, -101.760, 24.341, 91.925, -2.100, 0.297, 0.961, 604.798027733, 1351.0, 23.250, 0.0, 123.00, 6.00, 70.20, 160.20, 58.20, 143.40, 9.60, 9.00, 146.000, 2.000, 230.000, 2.000, 2.000, 0.000, 0.000, 2.000, 604.778601616, pc_20260310_153833_546.laz, 603.923584879, 20260310-153832.689052, 1773124712592028000
153833.671525, 604.847248586, 20260310-15:38:33-650000, 35.93917367833333, 126.548871315, 6.721, 4, 1.6, 371392281.1989, 159294212.4998, 268.109, 604.865842723, -229.46, 7403.50, -2375.44, 22.720, -103.422, 24.394, 91.916, -2.100, 0.301, 0.959, 604.898225029, 1354.0, 23.700, 0.0, 123.00, 6.00, 72.00, 156.60, 64.20, 141.60, 9.60, 9.00, 138.000, 0.000, 229.000, 3.000, 2.000, 1.000, 4.000, 4.000, 604.878621207, pc_20260310_153833_646.laz, 603.923584879, 20260310-153832.689052, 1773124712592028000
153833.771753, 604.947796014, 20260310-15:38:33-750000, 35.939173685, 126.54887131166667, 6.7215000000000025, 4, 1.8, 371392281.6807, 159294212.8483, 268.084, 604.965852857, -223.13, 7279.11, -2378.50, 23.073, -105.063, 24.294, 91.903, -2.100, 0.288, 0.997, 604.997715974, 1351.5, 23.850, 0.0, 119.40, 7.20, 76.80, 151.80, 63.60, 142.20, 10.20, 9.00, 136.000, 2.000, 232.000, 4.000, 0.000, 4.000, 3.000, 2.000, 604.978938538, pc_20260310_153833_746.laz, 603.923584879, 20260310-153832.689052, 1773124712592028000
153833.870988, 605.046899545, 20260310-15:38:33-850000, 35.939173673333336, 126.5488713, 6.720100000000002, 4, 1.9, 371392279.7145, 159294213.7146, 268.114, 605.065935791, -213.29, 7127.72, -2389.38, 23.337, -107.028, 24.281, 91.863, -2.200, 0.291, 0.986, 605.097566543, 1354.5, 23.750, 0.0, 118.20, 6.60, 73.20, 153.60, 61.20, 142.80, 12.60, 6.60, 133.000, 1.000, 233.000, 2.000, 2.000, 2.000, 2.000, 1.000, 605.078597858, pc_20260310_153833_846.laz, 603.923584879, 20260310-153832.689052, 1773124712592028000
153833.970564, 605.14792353, 20260310-15:38:33-950000, 35.939173653333334, 126.548871275, 6.7204000000000015, 4, 2.0, 371392277.2488, 159294212.2176, 268.171, 605.165858827, -206.34, 6967.57, -2405.62, 23.518, -109.055, 24.296, 91.847, -2.200, 0.293, 0.965, 605.197537915, 1357.0, 23.250, 0.0, 121.80, 6.00, 71.40, 154.20, 59.40, 143.40, 12.60, 6.60, 133.000, 1.000, 236.000, 1.000, 1.000, 3.000, 5.000, 1.000, 605.178673577, pc_20260310_153833_946.laz, 605.202514342, 20260310-153833.967989, 1773124713858741000
153834.071273, 605.248665341, 20260310-15:38:34-050000, 35.939173671666666, 126.548871275, 6.7225, 4, 2.0, 371392279.3275, 159294212.0784, 268.155, 605.265878308, -201.88, 6804.51, -2421.99, 23.684, -111.082, 24.314, 91.850, -2.200, 0.301, 0.972, 605.297299298, 1355.0, 23.300, 0.0, 128.40, 6.00, 73.20, 153.60, 59.40, 143.40, 10.80, 7.80, 133.000, 8.000, 233.000, 1.000, 4.000, 1.000, 2.000, 2.000, 605.278559745, pc_20260310_153834_046.laz, 605.294359042, 20260310-153834.059799, 1773124713958707000
153834.171129, 605.34757489, 20260310-15:38:34-150000, 35.93917367666667, 126.54887128833333, 6.723900000000004, 4, 1.1, 371392279.8235, 159294213.4518, 268.15, 605.365851996, -196.52, 6644.05, -2427.42, 23.868, -113.154, 24.530, 91.846, -2.200, 0.306, 0.962, 605.397946364, 1354.0, 23.650, 0.0, 130.80, 6.60, 73.20, 152.40, 58.20, 143.40, 9.60, 7.80, 136.000, 4.000, 235.000, 4.000, 1.000, 5.000, 3.000, 5.000, 605.379465045, pc_20260310_153834_148.laz, 605.386768491, 20260310-153834.152213, 1773124714058716000
153834.271475, 605.446843731, 20260310-15:38:34-250000, 35.939173673333336, 126.54887128, 6.723300000000002, 4, 1.3, 371392279.5408, 159294212.4619, 268.147, 605.465843329, -191.08, 6469.91, -2429.29, 24.105, -115.245, 24.322, 91.851, -2.200, 0.296, 0.967, 605.497320314, 1356.0, 23.650, 0.0, 129.60, 7.80, 73.20, 151.20, 58.80, 143.40, 9.00, 7.80, 149.000, 2.000, 232.000, 2.000, 0.000, 0.000, 1.000, 1.000, 605.478809062, pc_20260310_153834_246.laz, 605.491020723, 20260310-153834.256460, 1773124714158792000
153834.371888, 605.547070903, 20260310-15:38:34-350000, 35.939173665, 126.54887127833334, 6.722900000000003, 4, 1.4, 371392278.7674, 159294211.9188, 268.156, 605.565853499, -186.78, 6305.01, -2418.71, 24.360, -117.315, 24.330, 91.859, -2.200, 0.300, 0.952, 605.603394825, 1357.5, 23.450, 0.0, 126.60, 7.20, 74.40, 148.80, 60.00, 143.40, 9.00, 7.80, 164.000, 4.000, 233.000, 3.000, 2.000, 4.000, 0.000, 3.000, 605.578914698, pc_20260310_153834_346.laz, 605.596139277, 20260310-153834.361623, 1773124714258709000
153834.470897, 605.647636488, 20260310-15:38:34-450000, 35.939173663333335, 126.54887128333333, 6.723500000000005, 4, 1.5, 371392278.9177, 159294211.4066, 268.128, 605.665896811, -183.44, 6141.15, -2403.05, 24.642, -119.367, 24.339, 91.879, -2.200, 0.298, 0.959, 605.697150191, 1361.0, 23.850, 0.0, 126.60, 6.00, 73.80, 143.40, 61.20, 142.80, 9.00, 7.80, 170.000, 1.000, 232.000, 1.000, 1.000, 2.000, 0.000, 2.000, 605.679824717, pc_20260310_153834_447.laz, 605.693362941, 20260310-153834.458560, 1773124714358697000
153834.570576, 605.747815249, 20260310-15:38:34-550000, 35.939173671666666, 126.54887129833334, 6.724, 4, 1.5, 371392280.2326, 159294211.6315, 268.108, 605.765866522, -180.61, 5981.69, -2377.77, 24.971, -121.385, 24.343, 91.903, -2.100, 0.300, 0.967, 605.79739568, 1357.0, 23.300, 0.0, 129.60, 6.00, 73.80, 138.60, 61.20, 142.80, 9.00, 8.40, 164.000, 6.000, 238.000, 0.000, 2.000, 1.000, 1.000, 2.000, 605.779109524, pc_20260310_153834_547.laz, 605.790210469, 20260310-153834.555672, 1773124714458684000
153834.670858, 605.84751617, 20260310-15:38:34-650000, 35.93917368166667, 126.54887130333333, 6.726000000000003, 4, 1.6, 371392281.6770, 159294211.1450, 268.084, 605.865841949, -177.05, 5824.07, -2339.95, 25.376, -123.417, 24.348, 91.922, -2.100, 0.296, 0.966, 605.897629426, 1360.5, 22.750, 0.0, 126.60, 6.00, 76.80, 132.00, 61.80, 142.80, 9.00, 8.40, 144.000, 8.000, 252.000, 1.000, 1.000, 3.000, 2.000, 1.000, 605.87914482, pc_20260310_153834_647.laz, 605.891973336, 20260310-153834.657431, 1773124714558694000
153834.770855, 605.947670371, 20260310-15:38:34-750000, 35.93917368333334, 126.54887131833334, 6.725400000000004, 4, 0.8, 371392282.2579, 159294211.4263, 268.048, 605.96584983, -173.30, 5649.57, -2293.93, 25.796, -125.661, 24.351, 91.944, -2.100, 0.300, 0.941, 605.997128883, 1361.0, 22.700, 0.0, 117.00, 7.80, 81.00, 127.20, 63.60, 142.20, 9.00, 8.40, 119.000, 10.000, 262.000, 4.000, 2.000, 0.000, 2.000, 0.000, 605.978996935, pc_20260310_153834_746.laz, 605.989792021, 20260310-153834.755274, 1773124714658690000
153834.870875, 606.047185304, 20260310-15:38:34-850000, 35.93917366833333, 126.548871325, 6.723300000000002, 4, 0.9, 371392280.9397, 159294211.1407, 267.992, 606.065853853, -167.99, 5445.48, -2248.24, 26.125, -128.213, 24.348, 91.963, -2.100, 0.302, 0.897, 606.097667339, 1351.0, 22.650, 0.0, 105.00, 10.20, 84.60, 126.60, 65.40, 141.60, 9.00, 8.40, 107.000, 3.000, 290.000, 2.000, 1.000, 1.000, 4.000, 4.000, 606.079124985, pc_20260310_153834_847.laz, 606.090359213, 20260310-153834.855823, 1773124714758740000
153834.970586, 606.147197916, 20260310-15:38:34-950000, 35.939173651666664, 126.54887134166667, 6.7215000000000025, 4, 0.9, 371392279.2776, 159294212.1285, 268.005, 606.165944415, -160.64, 5211.52, -2209.91, 26.296, -131.029, 24.330, 91.973, -2.100, 0.299, 0.881, 606.19743141, 1352.5, 24.300, 0.0, 100.20, 10.80, 85.20, 127.20, 66.60, 141.60, 9.00, 7.80, 104.000, 2.000, 347.000, 1.000, 1.000, 6.000, 5.000, 1.000, 606.179091324, pc_20260310_153834_947.laz, 606.19179804, 20260310-153834.957280, 1773124714858717000
153835.071144, 606.248167402, 20260310-15:38:35-050000, 35.93917366, 126.54887133666666, 6.722300000000001, 4, 1.0, 371392280.3431, 159294211.1833, 268.016, 606.265861694, -152.62, 4959.35, -2175.78, 26.337, -133.982, 24.301, 91.984, -2.100, 0.297, 0.927, 606.297504095, 1356.5, 23.900, 0.0, 107.40, 6.00, 85.20, 126.60, 65.40, 141.60, 8.40, 7.80, 104.000, 0.000, 368.000, 2.000, 3.000, 2.000, 2.000, 0.000, 606.278909633, pc_20260310_153835_046.laz, 606.290805039, 20260310-153835.056295, 1773124714958705000
153835.170639, 606.347259212, 20260310-15:38:35-150000, 35.939173688333334, 126.54887134166667, 6.7276000000000025, 4, 1.1, 371392283.5949, 159294211.2654, 268.005, 606.365893135, -144.18, 4705.69, -2131.93, 26.315, -136.964, 24.289, 91.992, -2.100, 0.295, 0.958, 606.397680623, 1356.0, 23.350, 0.0, 120.00, 4.20, 87.00, 125.40, 64.20, 142.20, 8.40, 7.80, 106.000, 1.000, 370.000, 3.000, 3.000, 2.000, 1.000, 4.000, 606.378696423, pc_20260310_153835_146.laz, 606.390289264, 20260310-153835.155714, 1773124715058713000
153835.270643, 606.447035376, 20260310-15:38:35-250000, 35.939173706666665, 126.54887134333333, 6.730800000000002, 4, 1.3, 371392285.7116, 159294211.2162, 267.986, 606.465890102, -135.91, 4463.32, -2065.82, 26.374, -139.910, 24.304, 91.996, -2.100, 0.299, 0.946, 606.498876725, 1356.0, 23.800, 0.0, 126.60, 8.40, 90.60, 123.00, 64.20, 142.20, 8.40, 7.80, 108.000, 0.000, 372.000, 1.000, 1.000, 3.000, 0.000, 2.000, 606.47878152, pc_20260310_153835_246.laz, 606.494521175, 20260310-153835.259946, 1773124715158691000
153835.370979, 606.547624714, 20260310-15:38:35-350000, 35.939173685, 126.54887135, 6.728200000000005, 4, 1.4, 371392283.3288, 159294211.8168, 267.988, 606.565894627, -127.67, 4239.28, -1981.01, 26.551, -142.740, 24.341, 91.996, -2.100, 0.298, 0.914, 606.598287349, 1355.0, 24.050, 0.0, 121.80, 18.00, 95.40, 120.00, 67.80, 141.00, 8.40, 7.80, 117.000, 0.000, 246.000, 4.000, 1.000, 2.000, 0.000, 1.000, 606.578744578, pc_20260310_153835_346.laz, 606.589638074, 20260310-153835.355124, 1773124715258705000
153835.470931, 606.647683323, 20260310-15:38:35-450000, 35.93917366, 126.54887134666667, 6.7257, 4, 1.5, 371392280.6137, 159294211.3676, 268.008, 606.665953663, -119.76, 4024.60, -1889.23, 26.756, -145.465, 24.312, 91.998, -2.100, 0.293, 0.904, 606.697472431, 1356.5, 23.200, 0.0, 114.60, 19.20, 101.40, 102.00, 72.60, 139.80, 8.40, 7.80, 128.000, 0.000, 188.000, 1.000, 3.000, 0.000, 3.000, 5.000, 606.679325244, pc_20260310_153835_447.laz, 606.688272905, 20260310-153835.453714, 1773124715358689000
153835.571249, 606.747575526, 20260310-15:38:35-550000, 35.93917366666667, 126.54887134666667, 6.7252000000000045, 4, 1.5, 371392281.3691, 159294211.2743, 268.016, 606.765905608, -112.48, 3822.92, -1795.27, 26.940, -148.107, 24.425, 92.000, -2.100, 0.296, 0.925, 606.796994033, 1380.5, 23.800, 0.0, 110.40, 13.80, 94.20, 117.00, 78.00, 138.00, 8.40, 7.80, 128.000, 8.000, 115.000, 4.000, 1.000, 0.000, 5.000, 5.000, 606.779939128, pc_20260310_153835_547.laz, 606.788133106, 20260310-153835.553612, 1773124715458676000
153835.671104, 606.847381173, 20260310-15:38:35-650000, 35.93917366, 126.54887134166667, 6.7257, 4, 1.6, 371392280.5246, 159294211.2592, 267.999, 606.865903972, -107.54, 3705.65, -1726.87, 27.119, -149.642, 24.308, 91.991, -2.100, 0.299, 0.866, 606.897790638, 1375.0, 15.350, 0.0, 103.20, 10.80, 75.60, 177.60, 64.80, 142.20, 8.40, 7.80, 121.000, 8.000, 44.000, 4.000, 1.000, 2.000, 9.000, 4.000, 606.880204543, pc_20260310_153835_648.laz, 606.898869061, 20260310-153835.664320, 1773124715558675000
153835.771005, 606.948033609, 20260310-15:38:35-750000, 35.93917361333333, 126.54887134333333, 6.723500000000005, 4, 0.8, 371392275.1068, 159294212.1971, 268.03, 606.966025872, -107.26, 3722.82, -1713.78, 27.314, -149.554, 24.382, 91.974, -2.100, 0.308, 0.800, 606.99974634, 1347.5, 4.050, 0.0, 94.80, 11.40, 73.20, 185.40, 60.60, 144.00, 8.40, 7.80, 118.000, 0.000, 22.000, 3.000, 3.000, 0.000, 9.000, 5.000, 606.979104247, pc_20260310_153835_747.laz, 606.997434771, 20260310-153835.762884, 1773124715658695000
153835.870610, 607.047442172, 20260310-15:38:35-850000, 35.93917360333333, 126.54887133166666, 6.722000000000005, 4, 0.9, 371392273.8028, 159294211.5704, 268.067, 607.065861461, -108.70, 3798.75, -1735.80, 27.515, -148.672, 24.454, 91.966, -2.100, 0.285, 0.868, 607.097599554, 1355.0, 6.100, 0.0, 90.00, 7.80, 93.60, 120.00, 67.20, 141.60, 8.40, 7.80, 116.000, 0.000, 11.000, 0.000, 5.000, 3.000, 6.000, 4.000, 607.07856164, pc_20260310_153835_846.laz, 607.089376081, 20260310-153835.854823, 1773124715758709000
153835.970457, 607.147332267, 20260310-15:38:35-950000, 35.939173645, 126.54887133, 6.724400000000003, 4, 0.9, 371392278.3053, 159294211.6325, 268.06, 607.165880315, -109.28, 3817.35, -1750.50, 27.487, -148.411, 24.475, 91.962, -2.100, 0.290, 0.931, 607.197287848, 1357.5, 8.000, 0.0, 101.40, 4.20, 109.80, 68.40, 75.00, 139.20, 7.80, 7.80, 114.000, 0.000, 9.000, 0.000, 1.000, 0.000, 6.000, 4.000, 607.178927919, pc_20260310_153835_946.laz, 607.192767654, 20260310-153835.958227, 1773124715858689000
153836.070500, 607.248582071, 20260310-15:38:36-050000, 35.93917370166667, 126.548871315, 6.728100000000001, 4, 1.0, 371392284.3426, 159294210.9848, 268.03, 607.26586424, -106.96, 3769.93, -1737.19, 27.424, -148.948, 24.396, 91.948, -2.100, 0.300, 0.946, 607.297663836, 1354.5, 8.300, 0.0, 118.20, 3.60, 100.20, 98.40, 69.00, 140.40, 7.80, 7.20, 111.000, 1.000, 14.000, 4.000, 1.000, 0.000, 4.000, 9.000, 607.278567712, pc_20260310_153836_046.laz, 607.28951662, 20260310-153836.054955, 1773124715958694000
153836.170461, 607.347099918, 20260310-15:38:36-150000, 35.93917368333334, 126.548871305, 6.725000000000005, 4, 1.1, 371392282.2879, 159294210.2528, 268.065, 607.365854036, -106.24, 3759.06, -1718.69, 27.558, -149.154, 24.396, 91.944, -2.100, 0.299, 0.900, 607.397207006, 1356.5, 8.150, 0.0, 119.40, 10.80, 90.00, 129.00, 63.00, 142.80, 7.80, 7.20, 107.000, 4.000, 7.000, 1.000, 0.000, 5.000, 4.000, 3.000, 607.378682561, pc_20260310_153836_146.laz, 607.386025549, 20260310-153836.151529, 1773124716058672000
153836.271128, 607.44706247, 20260310-15:38:36-250000, 35.939173635, 126.54887132, 6.723300000000002, 4, 1.3, 371392276.8379, 159294211.9149, 268.061, 607.465920658, -106.79, 3791.39, -1709.84, 27.798, -148.880, 24.460, 91.937, -2.100, 0.298, 0.855, 607.498235616, 1358.0, 7.500, 0.0, 105.00, 19.80, 94.20, 115.20, 67.20, 141.60, 7.80, 7.20, 103.000, 8.000, 6.000, 2.000, 0.000, 0.000, 4.000, 5.000, 607.479051952, pc_20260310_153836_246.laz, 607.489436899, 20260310-153836.254890, 1773124716158655000
153836.370450, 607.547622347, 20260310-15:38:36-350000, 35.939173606666664, 126.54887131, 6.721100000000003, 4, 1.4, 371392273.4300, 159294211.7642, 268.087, 607.565895326, -105.83, 3801.09, -1706.32, 27.903, -148.771, 24.395, 91.921, -2.100, 0.290, 0.853, 607.597642848, 1356.5, 7.550, 0.0, 99.00, 16.80, 98.40, 101.40, 70.20, 140.40, 7.80, 7.20, 96.000, 8.000, 10.000, 0.000, 3.000, 0.000, 5.000, 3.000, 607.578757912, pc_20260310_153836_346.laz, 607.589395278, 20260310-153836.354835, 1773124716258662000
153836.470633, 607.64757811, 20260310-15:38:36-450000, 35.939173628333336, 126.54887129833334, 6.7242, 4, 1.5, 371392275.6942, 159294211.0056, 268.094, 607.66593643, -104.85, 3782.66, -1704.53, 27.881, -148.972, 24.386, 91.915, -2.100, 0.292, 0.906, 607.697771791, 1357.5, 8.150, 0.0, 103.20, 7.20, 94.20, 114.00, 67.20, 141.60, 7.20, 6.60, 78.000, 4.000, 7.000, 1.000, 2.000, 2.000, 6.000, 4.000, 607.679909744, pc_20260310_153836_447.laz, 607.689776674, 20260310-153836.455232, 1773124716358685000
153836.570448, 607.747749316, 20260310-15:38:36-550000, 35.93917366, 126.54887129166667, 6.725800000000003, 4, 1.5, 371392278.9566, 159294211.1274, 268.111, 607.765910058, -103.62, 3779.55, -1706.65, 27.842, -148.996, 24.388, 91.901, -2.100, 0.286, 0.911, 607.797395187, 1368.0, 7.650, 0.0, 109.80, 4.80, 91.80, 121.80, 64.20, 142.20, 7.20, 6.60, 31.000, 2.000, 5.000, 0.000, 5.000, 3.000, 4.000, 7.000, 607.778892814, pc_20260310_153836_546.laz, 607.791931549, 20260310-153836.557285, 1773124716458653000
153836.670965, 607.847555031, 20260310-15:38:36-650000, 35.93917365833333, 126.54887128, 6.724300000000003, 4, 1.6, 371392278.6361, 159294210.4968, 268.081, 607.865879821, -103.47, 3793.50, -1707.48, 27.891, -148.856, 24.421, 91.892, -2.100, 0.284, 0.900, 607.897487329, 1370.5, 6.350, 0.0, 108.00, 9.00, 94.80, 112.20, 65.40, 141.60, 7.20, 6.60, 15.000, 0.000, 6.000, 1.000, 4.000, 5.000, 6.000, 6.000, 607.878591338, pc_20260310_153836_646.laz, 607.88986278, 20260310-153836.655056, 1773124716558739000
153836.770829, 607.947861303, 20260310-15:38:36-750000, 35.93917364166667, 126.54887128666667, 6.723300000000002, 4, 1.8, 371392276.7386, 159294211.2665, 268.111, 607.965903581, -103.27, 3793.37, -1704.92, 27.900, -148.872, 24.427, 91.888, -2.100, 0.286, 0.878, 607.997511117, 1359.0, 3.100, 0.0, 106.20, 13.20, 95.40, 109.80, 67.20, 141.60, 6.60, 6.00, 12.000, 1.000, 5.000, 1.000, 2.000, 2.000, 4.000, 3.000, 607.979070825, pc_20260310_153836_747.laz, 607.986638051, 20260310-153836.752142, 1773124716658662000
153836.871203, 608.046960432, 20260310-15:38:36-850000, 35.939173636666666, 126.54887128333333, 6.7230000000000025, 4, 1.9, 371392276.0372, 159294211.3622, 268.096, 608.065855618, -102.24, 3782.91, -1702.85, 27.880, -148.991, 24.421, 91.880, -2.200, 0.282, 0.886, 608.098499631, 1352.5, 3.800, 0.0, 106.80, 12.00, 92.40, 119.40, 66.00, 141.60, 6.60, 6.00, 11.000, 0.000, 6.000, 2.000, 1.000, 2.000, 5.000, 3.000, 608.078568346, pc_20260310_153836_846.laz, 608.095003812, 20260310-153836.860428, 1773124716758682000
153836.970556, 608.147074122, 20260310-15:38:36-950000, 35.939173645, 126.54887128, 6.724700000000002, 4, 2.0, 371392276.8430, 159294211.3933, 268.132, 608.165898372, -101.86, 3785.43, -1705.56, 27.863, -148.951, 24.419, 91.873, -2.200, 0.281, 0.891, 608.197290049, 1356.5, 4.400, 0.0, 108.60, 9.60, 92.40, 118.80, 65.40, 141.60, 6.60, 6.00, 9.000, 3.000, 2.000, 2.000, 3.000, 0.000, 1.000, 1.000, 608.1786379, pc_20260310_153836_946.laz, 608.189556794, 20260310-153836.955033, 1773124716858668000
153837.071310, 608.248123757, 20260310-15:38:37-050000, 35.93917364666667, 126.548871285, 6.7241000000000035, 4, 2.0, 371392277.0186, 159294211.8566, 268.131, 608.265865845, -102.08, 3792.27, -1707.59, 27.878, -148.869, 24.420, 91.873, -2.200, 0.281, 0.895, 608.297293677, 1357.5, 4.250, 0.0, 108.60, 9.00, 94.20, 112.80, 65.40, 141.60, 6.00, 5.40, 8.000, 2.000, 3.000, 2.000, 4.000, 2.000, 1.000, 2.000, 608.280454447, pc_20260310_153837_049.laz, 608.292570951, 20260310-153837.058027, 1773124716958736000
153837.170891, 608.346998696, 20260310-15:38:37-150000, 35.939173645, 126.54887128, 6.723200000000002, 4, 1.1, 371392276.8170, 159294211.4759, 268.119, 608.365925846, -101.94, 3789.35, -1705.12, 27.884, -148.914, 24.426, 91.871, -2.200, 0.283, 0.886, 608.397243736, 1357.0, 4.250, 0.0, 108.00, 10.20, 93.60, 114.60, 65.40, 141.60, 6.00, 5.40, 4.000, 2.000, 5.000, 2.000, 2.000, 4.000, 0.000, 5.000, 608.37920807, pc_20260310_153837_147.laz, 608.39224366, 20260310-153837.157668, 1773124717058689000
153837.270581, 608.447685457, 20260310-15:38:37-250000, 35.93917364833333, 126.548871275, 6.722300000000001, 4, 1.3, 371392277.1600, 159294211.1091, 268.103, 608.465917882, -101.71, 3786.81, -1704.80, 27.877, -148.936, 24.408, 91.870, -2.200, 0.282, 0.886, 608.497276805, 1357.5, 4.250, 0.0, 107.40, 11.40, 92.40, 117.60, 65.40, 141.60, 6.00, 5.40, 8.000, 1.000, 1.000, 2.000, 0.000, 2.000, 0.000, 1.000, 608.479594954, pc_20260310_153837_247.laz, 608.494325637, 20260310-153837.259766, 1773124717158672000
153837.370828, 608.547580862, 20260310-15:38:37-350000, 35.93917364166667, 126.54887126666667, 6.720200000000002, 4, 1.4, 371392276.4120, 159294210.3754, 268.116, 608.565877786, -101.66, 3788.72, -1706.15, 27.876, -148.908, 24.405, 91.869, -2.200, 0.279, 0.892, 608.597811677, 1358.0, 4.100, 0.0, 107.40, 10.80, 93.00, 117.00, 65.40, 141.60, 5.40, 4.80, 6.000, 1.000, 1.000, 2.000, 0.000, 1.000, 0.000, 4.000, 608.579288994, pc_20260310_153837_347.laz, 608.596293564, 20260310-153837.361717, 1773124717258672000
153837.470969, 608.647664078, 20260310-15:38:37-450000, 35.93917365833333, 126.548871265, 6.721, 4, 1.5, 371392278.2966, 159294210.1433, 268.112, 608.665879426, -101.78, 3788.31, -1706.36, 27.868, -148.910, 24.403, 91.871, -2.200, 0.279, 0.889, 608.698072334, 1357.5, 4.200, 0.0, 108.00, 10.20, 93.00, 115.80, 65.40, 141.60, 5.40, 4.80, 4.000, 0.000, 6.000, 1.000, 1.000, 5.000, 0.000, 2.000, 608.680074784, pc_20260310_153837_449.laz, 608.69294768, 20260310-153837.458426, 1773124717358669000
153837.571355, 608.748102279, 20260310-15:38:37-550000, 35.93917365666667, 126.54887125666667, 6.720100000000002, 4, 1.5, 371392278.1533, 159294209.2842, 268.131, 608.765867605, -101.93, 3788.61, -1705.88, 27.874, -148.913, 24.413, 91.873, -2.200, 0.279, 0.889, 608.797017956, 1355.0, 4.250, 0.0, 108.00, 10.20, 93.00, 115.80, 65.40, 141.60, 5.40, 4.80, 5.000, 5.000, 2.000, 4.000, 1.000, 2.000, 0.000, 6.000, 608.780146475, pc_20260310_153837_548.laz, 608.793147056, 20260310-153837.558593, 1773124717458661000
153837.671725, 608.847596989, 20260310-15:38:37-650000, 35.93917365833333, 126.54887125, 6.719900000000003, 4, 1.6, 371392278.3917, 159294208.5450, 268.112, 608.865858429, -102.02, 3788.76, -1705.68, 27.878, -148.913, 24.414, 91.876, -2.200, 0.276, 0.888, 608.897570364, 1355.0, 4.250, 0.0, 108.00, 10.20, 93.00, 115.80, 65.40, 141.60, 5.40, 4.80, 5.000, 3.000, 6.000, 3.000, 3.000, 3.000, 0.000, 2.000, 608.879762552, pc_20260310_153837_647.laz, 608.892770356, 20260310-153837.658209, 1773124717558654000
153837.770444, 608.948148162, 20260310-15:38:37-750000, 35.939173665, 126.54887125333333, 6.7195, 4, 1.8, 371392279.1394, 159294208.8211, 268.107, 608.965862612, -102.03, 3789.39, -1706.50, 27.872, -148.901, 24.411, 91.877, -2.200, 0.274, 0.890, 608.997190176, 1356.5, 4.150, 0.0, 107.40, 10.20, 93.00, 115.20, 65.40, 141.60, 5.40, 4.20, 5.000, 0.000, 5.000, 4.000, 0.000, 2.000, 0.000, 1.000, 608.980814854, pc_20260310_153837_750.laz, 608.988671432, 20260310-153837.754135, 1773124717658644000
153837.870723, 609.047452832, 20260310-15:38:37-850000, 35.939173665, 126.54887124666666, 6.719800000000003, 4, 1.9, 371392279.1566, 159294208.1935, 268.093, 609.065855637, -102.10, 3789.26, -1706.66, 27.862, -148.904, 24.417, 91.877, -2.200, 0.275, 0.883, 609.097471154, 1356.5, 4.200, 0.0, 108.00, 10.20, 93.00, 115.20, 65.40, 141.60, 4.80, 4.20, 3.000, 0.000, 0.000, 0.000, 0.000, 1.000, 1.000, 2.000, 609.080223416, pc_20260310_153837_849.laz, 609.088463696, 20260310-153837.853905, 1773124717758640000
153837.971289, 609.147237257, 20260310-15:38:37-950000, 35.939173661666665, 126.54887125333333, 6.720200000000002, 4, 2.0, 371392278.8192, 159294208.6917, 268.107, 609.165873225, -102.27, 3789.48, -1706.83, 27.862, -148.901, 24.417, 91.879, -2.200, 0.276, 0.884, 609.197467358, 1356.5, 4.200, 0.0, 107.40, 10.20, 93.00, 115.20, 65.40, 141.60, 4.80, 4.20, 2.000, 2.000, 1.000, 3.000, 0.000, 5.000, 0.000, 3.000, 609.180293264, pc_20260310_153837_948.laz, 609.19136633, 20260310-153837.956776, 1773124717858633000
153838.070952, 609.248879001, 20260310-15:38:38-050000, 35.939173661666665, 126.54887126166666, 6.720500000000005, 4, 2.0, 371392278.8379, 159294209.3842, 268.107, 609.265961166, -102.39, 3789.80, -1707.12, 27.858, -148.897, 24.419, 91.881, -2.200, 0.277, 0.882, 609.297300518, 1357.0, 4.050, 0.0, 108.00, 10.20, 93.00, 115.20, 65.40, 141.60, 4.80, 4.20, 4.000, 5.000, 0.000, 2.000, 2.000, 4.000, 2.000, 0.000, 609.280326107, pc_20260310_153838_048.laz, 609.293253999, 20260310-153838.058719, 1773124717958631000
153838.171490, 609.347663633, 20260310-15:38:38-150000, 35.939173651666664, 126.54887125833334, 6.719600000000003, 4, 1.1, 371392277.7285, 159294209.0804, 268.107, 609.365912167, -102.37, 3789.52, -1706.97, 27.859, -148.900, 24.418, 91.881, -2.200, 0.277, 0.883, 609.397762109, 1357.0, 4.050, 0.0, 107.40, 10.20, 93.00, 115.20, 64.80, 141.00, 4.80, 4.20, 4.000, 7.000, 4.000, 1.000, 1.000, 3.000, 2.000, 2.000, 609.380201057, pc_20260310_153838_148.laz, 609.390342493, 20260310-153838.155760, 1773124718058791000
153838.270744, 609.448241699, 20260310-15:38:38-250000, 35.939173653333334, 126.54887125333333, 6.719900000000003, 4, 1.3, 371392277.9217, 159294208.6185, 268.135, 609.46593192, -102.47, 3789.83, -1706.83, 27.859, -148.898, 24.421, 91.881, -2.200, 0.279, 0.880, 609.497808458, 1355.0, 4.200, 0.0, 107.40, 10.20, 92.40, 115.20, 64.80, 141.00, 4.20, 3.60, 4.000, 8.000, 0.000, 1.000, 3.000, 2.000, 6.000, 4.000, 609.480701433, pc_20260310_153838_249.laz, 609.491456289, 20260310-153838.256907, 1773124718158640000
153838.370864, 609.548231769, 20260310-15:38:38-350000, 35.93917365666667, 126.548871255, 6.722200000000004, 4, 1.4, 371392278.3194, 159294208.6910, 268.129, 609.565975125, -102.45, 3789.81, -1706.87, 27.860, -148.899, 24.421, 91.882, -2.200, 0.275, 0.881, 609.597770613, 1353.0, 4.350, 0.0, 107.40, 9.60, 92.40, 115.20, 64.80, 141.00, 4.20, 3.60, 3.000, 10.000, 4.000, 0.000, 3.000, 2.000, 4.000, 2.000, 609.581544144, pc_20260310_153838_349.laz, 609.593789247, 20260310-153838.359230, 1773124718258675000
153838.470500, 609.647596417, 20260310-15:38:38-450000, 35.93917366, 126.54887125833334, 6.7230000000000025, 4, 1.5, 371392278.6655, 159294209.0484, 268.118, 609.665896617, -102.31, 3789.60, -1706.80, 27.864, -148.900, 24.417, 91.881, -2.200, 0.273, 0.885, 609.697250486, 1355.5, 4.250, 0.0, 107.40, 10.20, 92.40, 115.20, 65.40, 141.60, 4.20, 3.60, 2.000, 5.000, 1.000, 2.000, 0.000, 1.000, 2.000, 1.000, 609.679772311, pc_20260310_153838_447.laz, 609.687118267, 20260310-153838.452614, 1773124718358677000
153838.570420, 609.748113639, 20260310-15:38:38-550000, 35.939173661666665, 126.548871265, 6.723800000000001, 4, 1.5, 371392278.8734, 159294209.5816, 268.112, 609.765894227, -102.47, 3789.95, -1706.52, 27.867, -148.899, 24.420, 91.883, -2.200, 0.275, 0.883, 609.797996946, 1356.0, 4.250, 0.0, 107.40, 10.20, 92.40, 115.20, 64.80, 141.00, 4.20, 3.60, 3.000, 3.000, 0.000, 1.000, 1.000, 0.000, 1.000, 4.000, 609.780021524, pc_20260310_153838_548.laz, 609.789194644, 20260310-153838.554640, 1773124718458645000
153838.670526, 609.84712876, 20260310-15:38:38-650000, 35.93917366666667, 126.54887126666667, 6.723900000000004, 4, 1.6, 371392279.4278, 159294209.7452, 268.12, 609.865876109, -102.52, 3790.20, -1706.76, 27.859, -148.894, 24.419, 91.883, -2.200, 0.277, 0.877, 609.897734521, 1355.0, 4.300, 0.0, 107.40, 9.60, 92.40, 115.20, 64.80, 141.00, 4.20, 3.60, 0.000, 1.000, 2.000, 2.000, 1.000, 6.000, 0.000, 2.000, 609.880068352, pc_20260310_153838_648.laz, 609.891110026, 20260310-153838.656566, 1773124718558644000
153838.770564, 609.947872584, 20260310-15:38:38-750000, 35.93917365666667, 126.548871255, 6.723600000000001, 4, 0.8, 371392278.3390, 159294208.6387, 268.122, 609.965911675, -102.64, 3790.80, -1707.25, 27.858, -148.886, 24.420, 91.884, -2.200, 0.278, 0.879, 609.997006101, 1355.0, 4.350, 0.0, 107.40, 9.60, 92.40, 115.20, 64.80, 141.00, 4.20, 3.00, 2.000, 0.000, 0.000, 1.000, 3.000, 4.000, 0.000, 0.000, 609.980671909, pc_20260310_153838_749.laz, 609.993100033, 20260310-153838.758555, 1773124718658687000
153838.870469, 610.047260713, 20260310-15:38:38-850000, 35.93917365666667, 126.54887125666667, 6.722800000000003, 4, 0.9, 371392278.3697, 159294208.6910, 268.123, 610.06588901, -102.70, 3790.82, -1707.26, 27.863, -148.886, 24.422, 91.886, -2.200, 0.275, 0.884, 610.096900703, 1357.5, 4.200, 0.0, 107.40, 9.60, 92.40, 115.20, 64.80, 141.00, 3.60, 3.00, 2.000, 0.000, 2.000, 1.000, 0.000, 0.000, 0.000, 4.000, 610.08017851, pc_20260310_153838_848.laz, 610.091743312, 20260310-153838.857191, 1773124718758668000
153838.970565, 610.147213565, 20260310-15:38:38-950000, 35.93917365666667, 126.54887126166666, 6.7226000000000035, 4, 0.9, 371392278.3684, 159294209.1486, 268.109, 610.165891347, -102.69, 3790.67, -1707.03, 27.861, -148.890, 24.424, 91.885, -2.200, 0.275, 0.880, 610.19731122, 1356.5, 4.250, 0.0, 107.40, 9.60, 92.40, 115.20, 64.80, 141.00, 3.60, 3.00, 3.000, 0.000, 3.000, 0.000, 0.000, 4.000, 0.000, 1.000, 610.180470294, pc_20260310_153838_949.laz, 610.194650042, 20260310-153838.960077, 1773124718858688000
153839.071027, 610.248483413, 20260310-15:38:39-050000, 35.939173653333334, 126.54887126833333, 6.721, 4, 1.0, 371392278.0096, 159294209.7107, 268.124, 610.265879903, -102.76, 3791.12, -1707.27, 27.860, -148.884, 24.424, 91.886, -2.200, 0.275, 0.880, 610.297210654, 1355.5, 4.300, 0.0, 107.40, 9.60, 92.40, 115.20, 64.80, 141.00, 3.60, 3.00, 2.000, 2.000, 2.000, 3.000, 1.000, 0.000, 0.000, 1.000, 610.280404619, pc_20260310_153839_048.laz, 610.288686086, 20260310-153839.054169, 1773124718958680000
153839.171198, 610.347935605, 20260310-15:38:39-150000, 35.93917365666667, 126.54887127, 6.7215000000000025, 4, 1.1, 371392278.3554, 159294209.9197, 268.14, 610.36583706, -102.59, 3791.29, -1707.56, 27.862, -148.881, 24.424, 91.885, -2.200, 0.272, 0.885, 610.398027771, 1354.5, 4.400, 0.0, 107.40, 9.60, 92.40, 115.20, 64.80, 141.00, 3.60, 3.00, 2.000, 7.000, 4.000, 2.000, 1.000, 4.000, 2.000, 1.000, 610.380627064, pc_20260310_153839_149.laz, 610.392185629, 20260310-153839.157677, 1773124719058673000
153839.270817, 610.447756623, 20260310-15:38:39-250000, 35.93917364833333, 126.54887127, 6.7219000000000015, 4, 1.3, 371392277.4331, 159294209.9126, 268.116, 610.465927092, -102.52, 3791.83, -1707.88, 27.861, -148.873, 24.422, 91.885, -2.200, 0.269, 0.885, 610.497542045, 1356.5, 4.250, 0.0, 107.40, 9.60, 92.40, 115.20, 64.80, 141.00, 3.60, 3.00, 3.000, 0.000, 1.000, 0.000, 4.000, 5.000, 3.000, 0.000, 610.481005098, pc_20260310_153839_249.laz, 610.491499227, 20260310-153839.256973, 1773124719158678000
153839.370736, 610.547510983, 20260310-15:38:39-350000, 35.939173653333334, 126.54887127, 6.7226000000000035, 4, 1.4, 371392278.0179, 159294209.8353, 268.107, 610.565932785, -102.68, 3791.56, -1707.77, 27.858, -148.875, 24.419, 91.887, -2.200, 0.271, 0.882, 610.597030462, 1356.5, 4.300, 0.0, 107.40, 9.60, 92.40, 115.20, 64.80, 141.00, 3.60, 3.00, 2.000, 0.000, 3.000, 1.000, 2.000, 4.000, 1.000, 3.000, 610.580909919, pc_20260310_153839_349.laz, 610.589780002, 20260310-153839.355245, 1773124719258661000
153839.470984, 610.64805841, 20260310-15:38:39-450000, 35.93917364833333, 126.548871285, 6.723600000000001, 4, 1.5, 371392277.4740, 159294211.1388, 268.105, 610.665877051, -102.76, 3791.58, -1707.75, 27.858, -148.875, 24.420, 91.888, -2.200, 0.271, 0.881, 610.697422867, 1356.0, 4.250, 0.0, 107.40, 9.60, 92.40, 115.20, 64.80, 141.00, 3.60, 2.40, 1.000, 0.000, 0.000, 1.000, 2.000, 0.000, 4.000, 2.000, 610.68026514, pc_20260310_153839_448.laz, 610.691943581, 20260310-153839.457390, 1773124719358632000
153839.571016, 610.747477986, 20260310-15:38:39-550000, 35.93917363833334, 126.54887128333333, 6.723900000000004, 4, 1.5, 371392276.3647, 159294210.9822, 268.12, 610.765906298, -102.67, 3791.86, -1707.67, 27.863, -148.873, 24.420, 91.888, -2.200, 0.268, 0.884, 610.79701087, 1356.5, 4.300, 0.0, 107.40, 9.60, 92.40, 115.20, 64.80, 141.00, 3.00, 2.40, 2.000, 2.000, 5.000, 0.000, 0.000, 1.000, 0.000, 2.000, 610.780783142, pc_20260310_153839_549.laz, 610.78997939, 20260310-153839.555475, 1773124719458628000
153839.670471, 610.847252516, 20260310-15:38:39-650000, 35.93917364166667, 126.548871285, 6.725100000000001, 4, 1.6, 371392276.7387, 159294211.1177, 268.091, 610.865967367, -102.65, 3791.72, -1707.56, 27.866, -148.874, 24.419, 91.888, -2.200, 0.266, 0.885, 610.898226652, 1357.5, 4.200, 0.0, 107.40, 9.60, 92.40, 115.20, 64.80, 141.00, 3.00, 2.40, 0.000, 0.000, 5.000, 0.000, 2.000, 0.000, 0.000, 3.000, 610.881628107, pc_20260310_153839_650.laz, 610.889362621, 20260310-153839.654810, 1773124719558645000
153839.770490, 610.947867838, 20260310-15:38:39-750000, 35.93917364166667, 126.548871285, 6.724500000000003, 4, 0.8, 371392276.7376, 159294211.1232, 268.101, 610.965902877, -102.71, 3792.33, -1707.63, 27.866, -148.870, 24.425, 91.888, -2.200, 0.268, 0.884, 610.997106, 1356.5, 4.250, 0.0, 107.40, 9.60, 92.40, 115.20, 64.80, 141.00, 3.00, 2.40, 2.000, 2.000, 2.000, 2.000, 4.000, 1.000, 0.000, 1.000, 610.981674353, pc_20260310_153839_750.laz, 610.990379679, 20260310-153839.755849, 1773124719658652000
153839.870648, 611.047686657, 20260310-15:38:39-850000, 35.939173645, 126.54887128333333, 6.7241000000000035, 4, 0.9, 371392277.1557, 159294210.8462, 268.098, 611.06594895, -102.92, 3792.27, -1707.63, 27.863, -148.870, 24.425, 91.891, -2.200, 0.269, 0.881, 611.098680766, 1356.0, 4.400, 0.0, 107.40, 9.60, 91.80, 115.20, 64.20, 141.00, 3.00, 2.40, 0.000, 4.000, 0.000, 0.000, 2.000, 5.000, 2.000, 3.000, 611.080415388, pc_20260310_153839_849.laz, 611.09422579, 20260310-153839.859670, 1773124719758752000
153839.970465, 611.14721871, 20260310-15:38:39-950000, 35.93917364, 126.54887127666667, 6.723600000000001, 4, 0.9, 371392276.5880, 159294210.2768, 268.092, 611.165993269, -102.83, 3792.14, -1707.53, 27.868, -148.871, 24.423, 91.890, -2.200, 0.268, 0.886, 611.197240075, 1354.5, 4.450, 0.0, 106.80, 9.60, 91.80, 114.60, 64.20, 141.00, 3.00, 2.40, 2.000, 8.000, 2.000, 3.000, 0.000, 1.000, 3.000, 5.000, 611.180961222, pc_20260310_153839_950.laz, 611.1909433, 20260310-153839.956419, 1773124719858651000
153840.070996, 611.248271068, 20260310-15:38:40-050000, 35.939173635, 126.54887128166666, 6.723600000000001, 4, 1.0, 371392276.0465, 159294210.6817, 268.108, 611.265905423, -102.90, 3792.70, -1707.70, 27.869, -148.866, 24.428, 91.891, -2.200, 0.268, 0.886, 611.298527859, 1357.5, 4.300, 0.0, 106.80, 9.60, 91.80, 115.20, 64.20, 141.00, 3.00, 2.40, 0.000, 6.000, 0.000, 1.000, 0.000, 0.000, 4.000, 1.000, 611.280846455, pc_20260310_153840_050.laz, 611.289328813, 20260310-153840.054806, 1773124719958667000
153840.170515, 611.348184364, 20260310-15:38:40-150000, 35.93917364333333, 126.54887128333333, 6.723900000000004, 4, 1.1, 371392276.9705, 159294210.8433, 268.091, 611.365906357, -102.91, 3792.73, -1707.79, 27.864, -148.866, 24.430, 91.891, -2.200, 0.268, 0.883, 611.397275588, 1356.5, 4.250, 0.0, 106.80, 9.00, 91.80, 115.20, 64.20, 141.00, 3.00, 2.40, 3.000, 2.000, 0.000, 2.000, 0.000, 2.000, 4.000, 0.000, 611.381131651, pc_20260310_153840_150.laz, 611.387466577, 20260310-153840.152964, 1773124720058668000
153840.270686, 611.447878222, 20260310-15:38:40-250000, 35.939173645, 126.548871285, 6.7241000000000035, 4, 1.3, 371392277.1467, 159294211.0171, 268.089, 611.465875083, -102.92, 3793.41, -1708.17, 27.862, -148.858, 24.431, 91.890, -2.200, 0.269, 0.882, 611.497604376, 1356.0, 4.300, 0.0, 106.80, 9.00, 91.80, 114.60, 64.20, 140.40, 3.00, 2.40, 1.000, 0.000, 4.000, 0.000, 2.000, 0.000, 2.000, 3.000, 611.4810258, pc_20260310_153840_250.laz, 611.491090443, 20260310-153840.256525, 1773124720158644000
153840.371411, 611.548159608, 20260310-15:38:40-350000, 35.93917364166667, 126.54887128166666, 6.722000000000005, 4, 1.4, 371392276.7838, 159294210.6904, 268.125, 611.565906016, -102.97, 3793.43, -1708.28, 27.865, -148.856, 24.428, 91.891, -2.200, 0.269, 0.886, 611.596990198, 1356.5, 4.300, 0.0, 106.80, 9.00, 91.80, 114.60, 64.20, 140.40, 3.00, 2.40, 0.000, 0.000, 0.000, 0.000, 1.000, 0.000, 4.000, 4.000, 611.581512791, pc_20260310_153840_351.laz, 611.590194564, 20260310-153840.355670, 1773124720258615000
