ts(Global),ts(GNSS),ts(GNSS time),LLH(latitude),LLH(longitude),LLH(altitude),GNSS_qual,GNSS_age,TM(north),TM(east),Heading(GPS),ts(bucket - MC),bucket_x,bucket_y,bucket_z,slope_boom,slope_arm,slope_bucket,swing_angle,track_angle,body_roll,body_pitch,ts(Engine),rpm,fuel_consumption_rate,ts(pressure),p_boom_up,p_boom_down,p_arm_in,p_arm_out,p_bkt_in,p_bkt_out,p_swing_left,p_swing_right,p_pilot_boom_up,p_pilot_boom_down,p_pilot_arm_in,p_pilot_arm_out,p_pilot_bkt_in,p_pilot_bkt_out,p_pilot_swing_left,p_pilot_swing_right,ts(pc),laz_file_name,ts(svo_cam),ts_svo_cam,svo_timestamp,
152830.970483, 2.148554025, 20260310-15:28:30-950000, 35.939173665, 126.54887134166667, 6.722400000000004, 4, 0.9, 371392281.8949, 159294209.2162, 267.928, 2.163348784, -120.15, 4255.46, 182.22, 51.673, -121.669, -44.874, 92.034, -2.100, 0.226, 0.773, 2.196454691, 1354.5, 26.700, 0.0, 113.40, 2.40, 40.80, 130.80, 34.20, 67.20, 5.40, 4.80, 1.000, 189.000, 0.000, 200.000, 0.000, 3.000, 0.000, 1.000, 2.180696126, pc_20260310_152830_948.laz, -1773124108.7656806, , 0
152831.070601, 2.249093426, 20260310-15:28:31-050000, 35.93917367666667, 126.54887134166667, 6.720200000000002, 4, 1.0, 371392283.1015, 159294209.4479, 267.998, 2.263349741, -127.68, 4470.37, 111.36, 50.567, -119.054, -44.891, 92.029, -2.100, 0.225, 0.785, 2.296650661, 1364.5, 26.500, 0.0, 121.80, 2.40, 42.00, 129.60, 34.20, 66.60, 5.40, 4.80, 1.000, 203.000, 1.000, 198.000, 2.000, 2.000, 0.000, 2.000, 2.279838312, pc_20260310_152831_047.laz, -1773124108.7656806, , 0
152831.171066, 2.3487480759999997, 20260310-15:28:31-150000, 35.939173661666665, 126.54887134166667, 6.720100000000002, 4, 1.1, 371392281.3612, 159294209.6828, 268.002, 2.363318518, -134.32, 4662.11, 46.19, 49.514, -116.701, -44.912, 92.024, -2.100, 0.221, 0.772, 2.396690306, 1374.5, 24.150, 0.0, 116.40, 3.00, 40.20, 124.20, 34.20, 66.60, 5.40, 4.80, 0.000, 210.000, 1.000, 192.000, 4.000, 7.000, 1.000, 0.000, 2.380461688, pc_20260310_152831_149.laz, -1773124108.7656806, , 0
152831.270846, 2.448435328, 20260310-15:28:31-250000, 35.93917364333333, 126.54887134833334, 6.718500000000002, 4, 1.3, 371392279.3157, 159294210.3587, 267.983, 2.463326786, -140.24, 4826.66, -18.46, 48.448, -114.617, -45.059, 92.022, -2.100, 0.226, 0.740, 2.496797313, 1367.0, 19.600, 0.0, 103.20, 2.40, 37.20, 122.40, 34.20, 66.60, 6.00, 4.80, 1.000, 216.000, 0.000, 191.000, 0.000, 17.000, 0.000, 1.000, 2.481234444, pc_20260310_152831_250.laz, -1773124108.7656806, , 0
152831.371143, 2.548313255, 20260310-15:28:31-350000, 35.939173608333334, 126.54887135333334, 6.719100000000001, 4, 1.4, 371392275.3849, 159294210.9578, 267.988, 2.563335829, -145.86, 4985.70, -97.38, 47.279, -112.671, -44.967, 92.019, -2.100, 0.223, 0.721, 2.596784285, 1356.5, 20.200, 0.0, 93.60, 2.40, 35.40, 123.00, 33.60, 67.20, 6.00, 5.40, 0.000, 225.000, 0.000, 190.000, 0.000, 29.000, 0.000, 0.000, 2.580029213, pc_20260310_152831_347.laz, -1773124108.7656806, , 0
152831.470748, 2.648928561, 20260310-15:28:31-450000, 35.9391736, 126.54887134, 6.722400000000004, 4, 1.5, 371392274.3174, 159294210.1338, 267.983, 2.66335969, -150.76, 5134.80, -191.09, 45.981, -110.778, -44.982, 92.011, -2.100, 0.224, 0.740, 2.696573683, 1356.0, 20.350, 0.0, 94.20, 1.20, 34.80, 122.40, 33.00, 67.80, 6.00, 5.40, 0.000, 216.000, 3.000, 191.000, 3.000, 48.000, 3.000, 0.000, 2.681452318, pc_20260310_152831_450.laz, -1773124108.7656806, , 0
152831.571281, 2.749029141, 20260310-15:28:31-550000, 35.939173591666666, 126.54887133, 6.726400000000002, 4, 1.5, 371392273.2759, 159294209.5075, 267.989, 2.7633944169999998, -155.63, 5277.14, -299.85, 44.555, -108.928, -45.001, 92.005, -2.100, 0.225, 0.771, 2.79662616, 1361.0, 20.200, 0.0, 105.00, 0.60, 34.20, 123.00, 33.00, 67.80, 6.00, 5.40, 1.000, 220.000, 1.000, 189.000, 3.000, 66.000, 0.000, 5.000, 2.780775274, pc_20260310_152831_548.laz, -1773124108.7656806, , 0
152831.671815, 2.84913471, 20260310-15:28:31-650000, 35.93917361333333, 126.54887132, 6.729700000000005, 4, 1.6, 371392275.6148, 159294208.7471, 267.909, 2.863360084, -160.91, 5421.77, -428.28, 42.938, -107.001, -45.008, 92.002, -2.100, 0.223, 0.804, 2.896698734, 1359.5, 19.700, 0.0, 118.80, 0.60, 33.00, 124.20, 32.40, 68.40, 6.60, 5.40, 1.000, 223.000, 0.000, 186.000, 1.000, 75.000, 0.000, 0.000, 2.88069593, pc_20260310_152831_648.laz, -1773124108.7656806, , 0
152831.771226, 2.949735377, 20260310-15:28:31-750000, 35.939173628333336, 126.54887131, 6.730400000000003, 4, 1.8, 371392277.1340, 159294208.2240, 267.974, 2.963336522, -164.98, 5547.15, -541.05, 41.527, -105.260, -45.094, 91.995, -2.100, 0.224, 0.827, 2.996530982, 1357.0, 19.900, 0.0, 130.20, 0.60, 32.40, 127.20, 31.80, 69.00, 6.60, 6.00, 0.000, 221.000, 3.000, 195.000, 0.000, 77.000, 0.000, 0.000, 2.981780472, pc_20260310_152831_750.laz, 2.998237943, 20260310-152831.763745, 1773124111663436000
152831.870611, 3.04818577, 20260310-15:28:31-850000, 35.939173625, 126.54887130166667, 6.7337000000000025, 4, 1.9, 371392276.6606, 159294207.7401, 268.08, 3.063336462, -168.70, 5659.43, -637.11, 40.352, -103.743, -45.015, 91.989, -2.100, 0.224, 0.843, 3.096517761, 1354.5, 19.850, 0.0, 135.00, 0.60, 31.20, 132.00, 31.20, 70.20, 6.60, 6.00, 0.000, 220.000, 0.000, 200.000, 2.000, 82.000, 0.000, 6.000, 3.080777136, pc_20260310_152831_848.laz, 3.092535758, 20260310-152831.858018, 1773124111763445000
152831.971567, 3.149131111, 20260310-15:28:31-950000, 35.93917364, 126.54887128666667, 6.731100000000001, 4, 2.0, 371392278.2842, 159294206.5632, 268.041, 3.16338088, -173.11, 5784.88, -734.10, 39.114, -102.006, -45.000, 91.986, -2.100, 0.226, 0.825, 3.196743716, 1350.5, 20.450, 0.0, 133.20, 1.20, 31.20, 136.20, 30.60, 71.40, 6.60, 6.00, 1.000, 217.000, 0.000, 207.000, 3.000, 84.000, 1.000, 0.000, 3.182254163, pc_20260310_152831_951.laz, 3.196003503, 20260310-152831.961472, 1773124111863439000
152832.071322, 3.250063805, 20260310-15:28:32-050000, 35.93917365666667, 126.54887130666667, 6.726700000000005, 4, 2.0, 371392280.0619, 159294208.5502, 267.973, 3.263369359, -177.70, 5917.18, -824.28, 37.962, -100.168, -44.985, 91.982, -2.100, 0.228, 0.826, 3.296556059, 1349.0, 22.950, 0.0, 129.00, 1.20, 31.80, 138.00, 30.00, 74.40, 7.20, 6.60, 0.000, 217.000, 4.000, 210.000, 3.000, 81.000, 0.000, 1.000, 3.28159324, pc_20260310_152832_050.laz, 3.296089005, 20260310-152832.061531, 1773124111963447000
152832.171299, 3.348729272, 20260310-15:28:32-150000, 35.93917365, 126.54887131666666, 6.726200000000002, 4, 2.2, 371392279.2873, 159294209.5502, 267.974, 3.363327025, -182.67, 6056.14, -912.68, 36.811, -98.226, -44.959, 91.980, -2.100, 0.231, 0.818, 3.396698043, 1345.0, 25.800, 0.0, 125.40, 1.20, 33.00, 140.40, 31.80, 77.40, 7.20, 6.60, 1.000, 219.000, 0.000, 211.000, 0.000, 80.000, 0.000, 4.000, 3.381018845, pc_20260310_152832_149.laz, 3.392552418, 20260310-152832.158037, 1773124112063448000
152832.271308, 3.4484423509999997, 20260310-15:28:32-250000, 35.939173661666665, 126.54887131333334, 6.723200000000002, 4, 1.3, 371392280.5111, 159294209.4249, 268.003, 3.4633648360000002, -187.59, 6199.18, -1001.92, 35.672, -96.209, -44.916, 91.976, -2.100, 0.231, 0.834, 3.497378059, 1345.5, 24.500, 0.0, 124.80, 1.80, 33.60, 139.80, 34.20, 81.00, 7.20, 6.60, 0.000, 213.000, 0.000, 211.000, 0.000, 82.000, 2.000, 0.000, 3.482695175, pc_20260310_152832_251.laz, 3.495919872, 20260310-152832.261386, 1773124112163562000
152832.371462, 3.549855997, 20260310-15:28:32-350000, 35.939173665, 126.54887130833333, 6.721600000000002, 4, 1.4, 371392280.8226, 159294209.1424, 267.998, 3.563394047, -192.32, 6338.85, -1091.80, 34.521, -94.210, -44.863, 91.973, -2.100, 0.228, 0.837, 3.596983963, 1355.0, 25.250, 0.0, 126.60, 1.20, 33.60, 140.40, 36.00, 85.20, 7.20, 6.60, 2.000, 210.000, 3.000, 211.000, 1.000, 85.000, 3.000, 0.000, 3.581531756, pc_20260310_152832_350.laz, 3.594513428, 20260310-152832.359996, 1773124112263435000
152832.471532, 3.648847037, 20260310-15:28:32-450000, 35.93917364666667, 126.54887130666667, 6.7227, 4, 1.5, 371392278.7364, 159294209.1157, 268.036, 3.663323258, -197.21, 6477.84, -1180.31, 33.380, -92.181, -44.841, 91.970, -2.100, 0.232, 0.843, 3.696672654, 1352.0, 24.550, 0.0, 129.60, 1.80, 33.60, 142.20, 38.40, 90.60, 7.80, 7.20, 0.000, 210.000, 2.000, 209.000, 3.000, 87.000, 4.000, 3.000, 3.680775107, pc_20260310_152832_448.laz, 3.693617142, 20260310-152832.459094, 1773124112363528000
152832.571446, 3.748898687, 20260310-15:28:32-550000, 35.93917366, 126.54887132166667, 6.726400000000002, 4, 1.5, 371392280.1300, 159294210.6975, 268.092, 3.763326232, -201.78, 6615.40, -1265.58, 32.269, -90.159, -44.794, 91.966, -2.100, 0.233, 0.844, 3.796841807, 1355.5, 25.300, 0.0, 131.40, 1.80, 33.60, 142.20, 41.40, 96.00, 7.80, 7.20, 2.000, 209.000, 0.000, 208.000, 1.000, 82.000, 4.000, 0.000, 3.7809040449999998, pc_20260310_152832_548.laz, 3.798784104, 20260310-152832.564258, 1773124112463430000
152832.670614, 3.8489305209999998, 20260310-15:28:32-650000, 35.93917364833333, 126.54887131666666, 6.725900000000003, 4, 1.6, 371392278.7846, 159294210.3702, 268.044, 3.863359731, -206.39, 6748.96, -1346.67, 31.205, -88.163, -44.768, 91.963, -2.100, 0.234, 0.852, 3.896771465, 1359.0, 24.650, 0.0, 132.00, 1.80, 33.60, 143.40, 44.40, 101.40, 7.80, 7.20, 1.000, 211.000, 0.000, 208.000, 0.000, 81.000, 4.000, 0.000, 3.88109275, pc_20260310_152832_649.laz, 3.893585165, 20260310-152832.659085, 1773124112563442000
152832.771076, 3.94875134, 20260310-15:28:32-750000, 35.939173645, 126.54887130833333, 6.725900000000003, 4, 1.8, 371392278.3673, 159294209.7626, 268.044, 3.963309967, -211.02, 6884.68, -1430.55, 30.060, -85.990, -44.974, 91.960, -2.100, 0.234, 0.851, 3.997158225, 1356.5, 24.450, 0.0, 131.40, 1.80, 33.60, 144.00, 47.40, 107.40, 8.40, 7.80, 2.000, 207.000, 3.000, 209.000, 3.000, 84.000, 3.000, 4.000, 3.981174622, pc_20260310_152832_749.laz, 3.993630986, 20260310-152832.759084, 1773124112663445000
152832.871640, 4.048552868, 20260310-15:28:32-850000, 35.93917363333333, 126.5488713, 6.727300000000003, 4, 1.9, 371392277.0285, 159294209.1401, 268.067, 4.063304102, -215.33, 7008.19, -1500.20, 29.139, -84.226, -44.684, 91.957, -2.100, 0.241, 0.848, 4.098078984, 1359.0, 24.650, 0.0, 130.80, 1.80, 33.60, 144.00, 50.40, 112.80, 8.40, 7.80, 2.000, 208.000, 0.000, 207.000, 2.000, 83.000, 3.000, 0.000, 4.080851634, pc_20260310_152832_849.laz, 4.094379484, 20260310-152832.859836, 1773124112763677000
152832.971170, 4.148562136, 20260310-15:28:32-950000, 35.93917363833334, 126.54887130166667, 6.727300000000003, 4, 2.0, 371392277.5140, 159294209.4776, 268.11, 4.163310239, -219.42, 7132.93, -1574.85, 28.129, -82.279, -44.658, 91.953, -2.100, 0.241, 0.852, 4.196762813, 1356.0, 24.550, 0.0, 130.80, 1.80, 33.60, 145.20, 53.40, 118.80, 8.40, 7.80, 0.000, 213.000, 2.000, 208.000, 4.000, 85.000, 4.000, 2.000, 4.180945419, pc_20260310_152832_950.laz, 4.19356112, 20260310-152832.959051, 1773124112863465000
152833.071344, 4.249233328, 20260310-15:28:33-050000, 35.939173636666666, 126.54887131166667, 6.729600000000001, 4, 2.0, 371392277.2862, 159294210.4733, 268.096, 4.2633014209999995, -223.55, 7254.48, -1648.14, 27.137, -80.356, -44.621, 91.951, -2.100, 0.238, 0.860, 4.296634134, 1356.0, 24.200, 0.0, 131.40, 2.40, 33.00, 146.40, 55.80, 125.40, 9.00, 7.80, 3.000, 207.000, 1.000, 215.000, 2.000, 86.000, 2.000, 6.000, 4.281674085, pc_20260310_152833_050.laz, 4.296061349, 20260310-152833.061524, 1773124112963452000
152833.170668, 4.347711366, 20260310-15:28:33-150000, 35.93917363, 126.54887130833333, 6.730400000000003, 4, 2.2, 371392276.5033, 159294210.2963, 268.055, 4.363308666, -227.78, 7377.31, -1720.28, 26.132, -78.388, -44.584, 91.949, -2.100, 0.242, 0.858, 4.396668435, 1361.5, 24.550, 0.0, 133.80, 2.40, 30.60, 148.80, 58.20, 131.40, 9.00, 8.40, 1.000, 202.000, 1.000, 219.000, 0.000, 88.000, 2.000, 0.000, 4.382587781, pc_20260310_152833_151.laz, 4.395065412, 20260310-152833.160550, 1773124113063442000
152833.271497, 4.448438326, 20260310-15:28:33-250000, 35.939173618333335, 126.5488713, 6.7337000000000025, 4, 1.3, 371392275.1996, 159294209.5607, 268.081, 4.46331914, -232.66, 7510.61, -1799.92, 25.024, -76.210, -44.540, 91.948, -2.100, 0.244, 0.862, 4.49678709, 1358.0, 24.100, 0.0, 136.20, 2.40, 28.20, 148.80, 60.00, 137.40, 9.00, 8.40, 2.000, 203.000, 3.000, 224.000, 1.000, 83.000, 2.000, 0.000, 4.481730512, pc_20260310_152833_251.laz, 4.492094346, 20260310-152833.257569, 1773124113163443000
152833.371367, 4.548541448, 20260310-15:28:33-350000, 35.939173628333336, 126.548871295, 6.733600000000003, 4, 1.4, 371392276.2576, 159294209.2313, 268.05, 4.563307567, -236.89, 7641.36, -1853.08, 24.150, -74.132, -44.483, 91.946, -2.100, 0.241, 0.879, 4.597409601, 1356.5, 24.300, 0.0, 139.20, 2.40, 25.80, 149.40, 62.40, 142.80, 9.00, 8.40, 2.000, 202.000, 1.000, 230.000, 3.000, 81.000, 2.000, 6.000, 4.581817397, pc_20260310_152833_351.laz, 4.594920632, 20260310-152833.360394, 1773124113263508000
152833.471019, 4.649301578, 20260310-15:28:33-450000, 35.93917363166667, 126.5488713, 6.732100000000003, 4, 1.5, 371392276.5666, 159294209.8315, 268.104, 4.663309218, -241.48, 7783.84, -1909.33, 23.178, -71.827, -44.428, 91.943, -2.100, 0.239, 0.888, 4.696715945, 1361.5, 24.400, 0.0, 141.60, 2.40, 24.00, 149.40, 64.80, 148.20, 9.00, 8.40, 2.000, 202.000, 2.000, 234.000, 1.000, 81.000, 4.000, 0.000, 4.681518216, pc_20260310_152833_450.laz, 4.693663376, 20260310-152833.459128, 1773124113363457000
152833.570841, 4.748967377, 20260310-15:28:33-550000, 35.939173635, 126.54887129833334, 6.730300000000003, 4, 1.5, 371392276.9017, 159294209.7626, 268.14, 4.763303393, -246.53, 7931.67, -1955.48, 22.241, -69.420, -44.393, 91.941, -2.100, 0.242, 0.896, 4.7970769109999996, 1358.5, 24.050, 0.0, 142.80, 3.00, 22.20, 150.00, 67.20, 153.00, 9.60, 9.00, 2.000, 200.000, 3.000, 232.000, 2.000, 86.000, 4.000, 1.000, 4.782488774, pc_20260310_152833_552.laz, 4.800385743, 20260310-152833.565850, 1773124113463471000
152833.670443, 4.847960524, 20260310-15:28:33-650000, 35.939173636666666, 126.54887129333333, 6.730300000000003, 4, 1.6, 371392277.0872, 159294209.3201, 268.11, 4.863338072, -251.93, 8084.75, -1992.32, 21.320, -66.923, -44.341, 91.941, -2.100, 0.244, 0.893, 4.896759426, 1353.0, 24.100, 0.0, 142.20, 3.00, 21.60, 150.60, 69.60, 157.80, 9.60, 9.00, 0.000, 199.000, 2.000, 231.000, 2.000, 88.000, 2.000, 4.000, 4.881861273, pc_20260310_152833_650.laz, 4.891318788, 20260310-152833.656778, 1773124113563465000
152833.771712, 4.948007982, 20260310-15:28:33-750000, 35.93917363833334, 126.54887129166667, 6.729000000000003, 4, 1.8, 371392277.2762, 159294209.1599, 268.046, 4.963320723, -257.24, 8239.77, -2021.39, 20.422, -64.362, -44.295, 91.941, -2.100, 0.242, 0.895, 5.005494844, 1355.5, 24.850, 0.0, 141.00, 3.00, 21.00, 150.00, 72.60, 161.40, 9.60, 9.00, 3.000, 220.000, 0.000, 228.000, 4.000, 85.000, 1.000, 0.000, 4.982189107, pc_20260310_152833_751.laz, 4.991829839, 20260310-152833.757299, 1773124113663499000
152833.871023, 5.048918355, 20260310-15:28:33-850000, 35.939173628333336, 126.54887129666666, 6.7276000000000025, 4, 1.9, 371392276.1233, 159294209.7222, 268.026, 5.063315614, -262.14, 8392.49, -2043.90, 19.542, -61.782, -44.276, 91.939, -2.100, 0.242, 0.895, 5.097070275, 1358.0, 24.200, 0.0, 136.20, 3.00, 21.00, 150.00, 73.20, 166.80, 9.60, 9.00, 2.000, 225.000, 1.000, 226.000, 3.000, 85.000, 3.000, 2.000, 5.081633841, pc_20260310_152833_850.laz, 5.095200205, 20260310-152833.860634, 1773124113763460000
152833.971035, 5.14700441, 20260310-15:28:33-950000, 35.93917361333333, 126.54887131166667, 6.723900000000004, 4, 2.0, 371392274.4332, 159294211.1599, 268.06, 5.163307103, -266.96, 8540.59, -2064.25, 18.643, -59.215, -44.265, 91.937, -2.100, 0.242, 0.878, 5.196600402, 1356.0, 24.050, 0.0, 127.20, 3.60, 20.40, 150.60, 73.80, 171.60, 9.60, 9.00, 3.000, 216.000, 2.000, 226.000, 3.000, 82.000, 1.000, 6.000, 5.182065974, pc_20260310_152833_951.laz, 5.191118482, 20260310-152833.956613, 1773124113863446000
152834.070893, 5.248892138, 20260310-15:28:34-050000, 35.93917359666667, 126.54887133166666, 6.721300000000003, 4, 2.0, 371392272.6870, 159294212.7004, 268.061, 5.263313295, -272.94, 8686.26, -2087.63, 17.684, -56.626, -44.209, 91.942, -2.100, 0.246, 0.851, 5.297229184, 1357.5, 24.450, 0.0, 121.20, 3.00, 20.40, 148.80, 76.20, 174.60, 9.60, 9.00, 2.000, 214.000, 0.000, 226.000, 0.000, 84.000, 3.000, 1.000, 5.2813577469999995, pc_20260310_152834_050.laz, 5.29549659, 20260310-152834.060963, 1773124113963432000
152834.170744, 5.347364558, 20260310-15:28:34-150000, 35.93917362, 126.54887132333333, 6.721800000000002, 4, 2.2, 371392275.1997, 159294212.1350, 268.02, 5.363312596, -277.24, 8827.44, -2119.26, 16.688, -53.985, -44.184, 91.939, -2.100, 0.245, 0.874, 5.397673897, 1358.5, 24.150, 0.0, 122.40, 2.40, 20.40, 148.80, 78.60, 177.00, 9.60, 9.00, 2.000, 212.000, 3.000, 224.000, 2.000, 89.000, 2.000, 1.000, 5.3816934530000005, pc_20260310_152834_151.laz, 5.397799661, 20260310-152834.163161, 1773124114063430000
152834.270701, 5.449293209, 20260310-15:28:34-250000, 35.939173636666666, 126.54887131, 6.724, 4, 1.3, 371392276.7631, 159294211.7275, 268.01, 5.46332082, -279.17, 8961.57, -2156.24, 15.637, -51.349, -44.186, 91.922, -2.100, 0.239, 0.890, 5.4978052250000005, 1353.5, 24.050, 0.0, 128.40, 2.40, 19.20, 153.60, 79.20, 181.20, 10.20, 9.00, 2.000, 212.000, 2.000, 222.000, 5.000, 99.000, 2.000, 4.000, 5.482518915, pc_20260310_152834_251.laz, 5.494592427, 20260310-152834.260042, 1773124114163439000
152834.371116, 5.549043464, 20260310-15:28:34-350000, 35.939173645, 126.54887128166666, 6.723600000000001, 4, 1.4, 371392277.5390, 159294209.6060, 268.053, 5.563325186, -282.15, 9087.89, -2192.41, 14.594, -48.797, -44.153, 91.913, -2.200, 0.240, 0.899, 5.596702725, 1356.5, 24.550, 0.0, 133.20, 1.80, 18.00, 159.60, 79.20, 187.20, 10.20, 9.60, 2.000, 212.000, 1.000, 226.000, 2.000, 112.000, 3.000, 1.000, 5.581412272, pc_20260310_152834_350.laz, 5.591888793, 20260310-152834.357397, 1773124114263449000
152834.470655, 5.648391211, 20260310-15:28:34-450000, 35.93917364833333, 126.54887127833334, 6.724400000000003, 4, 1.5, 371392277.6953, 159294209.9201, 268.102, 5.663342653, -284.58, 9211.58, -2222.65, 13.574, -46.300, -44.014, 91.901, -2.200, 0.246, 0.893, 5.697033899, 1355.5, 24.700, 0.0, 135.00, 2.40, 17.40, 166.20, 81.60, 197.40, 10.20, 9.60, 3.000, 212.000, 3.000, 222.000, 4.000, 114.000, 2.000, 1.000, 5.681427074, pc_20260310_152834_450.laz, 5.697303763, 20260310-152834.462784, 1773124114363436000
152834.571608, 5.749396995, 20260310-15:28:34-550000, 35.93917364333333, 126.54887126666667, 6.723900000000004, 4, 1.5, 371392276.8259, 159294209.7455, 268.098, 5.763340658, -285.55, 9333.09, -2244.95, 12.611, -43.831, -43.822, 91.882, -2.200, 0.241, 0.902, 5.797531605, 1354.5, 24.000, 0.0, 133.80, 2.40, 16.80, 173.40, 84.60, 207.00, 10.20, 9.60, 2.000, 214.000, 3.000, 223.000, 5.000, 115.000, 0.000, 5.000, 5.782375343, pc_20260310_152834_551.laz, 5.796034826, 20260310-152834.561459, 1773124114463698000
152834.671020, 5.84859504, 20260310-15:28:34-650000, 35.93917364, 126.54887126, 6.7276000000000025, 4, 1.6, 371392276.2632, 159294209.7330, 268.112, 5.863311714, -287.87, 9454.78, -2260.29, 11.630, -41.320, -43.591, 91.870, -2.200, 0.249, 0.880, 5.89692688, 1364.0, 24.250, 0.0, 132.60, 1.80, 16.20, 177.00, 87.00, 213.00, 11.40, 9.00, 3.000, 212.000, 2.000, 224.000, 3.000, 120.000, 0.000, 1.000, 5.881642906, pc_20260310_152834_651.laz, 5.895994885, 20260310-152834.661445, 1773124114563654000
152834.771075, 5.949714863, 20260310-15:28:34-750000, 35.93917364333333, 126.54887125166667, 6.728300000000001, 4, 0.8, 371392276.3863, 159294209.6615, 268.127, 5.963316003, -289.01, 9568.00, -2283.91, 10.584, -38.667, -43.630, 91.856, -2.200, 0.241, 0.893, 5.99734036, 1357.5, 23.300, 0.0, 132.60, 2.40, 15.00, 183.60, 87.00, 218.40, 12.00, 9.00, 2.000, 197.000, 2.000, 225.000, 4.000, 118.000, 0.000, 0.000, 5.981991961, pc_20260310_152834_751.laz, 5.996160902, 20260310-152834.761627, 1773124114663481000
152834.870747, 6.048779996, 20260310-15:28:34-850000, 35.93917365833333, 126.54887123333333, 6.729800000000001, 4, 0.9, 371392278.0187, 159294208.1377, 268.136, 6.063323243, -292.44, 9687.07, -2274.07, 9.769, -36.280, -43.173, 91.853, -2.200, 0.242, 0.888, 6.097217664, 1360.5, 23.900, 0.0, 131.40, 2.40, 12.00, 196.80, 90.60, 221.40, 11.40, 9.60, 1.000, 183.000, 4.000, 224.000, 2.000, 118.000, 3.000, 6.000, 6.082183627, pc_20260310_152834_853.laz, 6.094392142, 20260310-152834.859843, 1773124114763455000
152834.971276, 6.1491279930000005, 20260310-15:28:34-950000, 35.93917365833333, 126.54887123166667, 6.730400000000003, 4, 0.9, 371392278.2183, 159294207.4370, 268.175, 6.163311902, -296.71, 9762.31, -2281.78, 9.114, -34.637, -42.875, 91.865, -2.200, 0.238, 0.886, 6.196663532, 1352.0, 23.450, 0.0, 110.40, 3.00, 7.20, 240.00, 101.40, 234.60, 11.40, 10.20, 5.000, 155.000, 0.000, 220.000, 4.000, 115.000, 5.000, 2.000, 6.183391262, pc_20260310_152834_952.laz, 6.19437601, 20260310-152834.959869, 1773124114863437000
152835.071358, 6.248517228, 20260310-15:28:35-050000, 35.939173625, 126.54887125, 6.7272, 4, 1.0, 371392275.1292, 159294207.6347, 268.17, 6.263322211, -302.33, 9781.25, -2300.81, 8.702, -34.243, -42.608, 91.895, -2.200, 0.231, 0.750, 6.297014931, 1354.5, 24.650, 0.0, 83.40, 3.60, 6.00, 298.80, 113.40, 269.40, 12.00, 11.40, 2.000, 149.000, 0.000, 228.000, 4.000, 115.000, 5.000, 1.000, 6.283233822, pc_20260310_152835_052.laz, 6.297208568, 20260310-152835.062662, 1773124114963433000
152835.171032, 6.34876997, 20260310-15:28:35-150000, 35.939173525, 126.54887129333333, 6.719900000000003, 4, 1.1, 371392264.8751, 159294209.2884, 268.111, 6.363327239, -310.96, 9797.52, -2308.37, 8.425, -33.993, -42.317, 91.940, -2.200, 0.236, 0.630, 6.397962794, 1358.0, 24.300, 0.0, 57.00, 3.60, 4.20, 324.00, 123.00, 303.60, 13.20, 12.60, 7.000, 97.000, 5.000, 221.000, 4.000, 118.000, 6.000, 6.000, 6.383024128, pc_20260310_152835_152.laz, 6.394030008, 20260310-152835.159493, 1773124115063420000
152835.270736, 6.448725361, 20260310-15:28:35-250000, 35.9391735, 126.54887131333334, 6.719100000000001, 4, 1.3, 371392262.2712, 159294210.6108, 268.051, 6.463315937, -313.59, 9812.31, -2316.75, 8.243, -33.742, -42.077, 91.950, -2.200, 0.247, 0.606, 6.4972805309999995, 1358.0, 21.650, 0.0, 45.00, 3.60, 3.60, 333.00, 127.80, 322.80, 15.00, 14.40, 6.000, 25.000, 0.000, 180.000, 9.000, 102.000, 5.000, 1.000, 6.482385107, pc_20260310_152835_251.laz, 6.495226871, 20260310-152835.260667, 1773124115163428000
152835.370492, 6.548352447, 20260310-15:28:35-350000, 35.939173535, 126.54887129666666, 6.722400000000004, 4, 1.4, 371392265.9861, 159294209.6112, 268.071, 6.563340545, -312.10, 9819.27, -2322.50, 8.163, -33.626, -41.948, 91.940, -2.200, 0.246, 0.611, 6.59658857, 1364.0, 19.650, 0.0, 45.00, 3.00, 3.00, 336.60, 129.00, 328.80, 16.80, 16.20, 5.000, 14.000, 2.000, 141.000, 5.000, 70.000, 4.000, 1.000, 6.583037855, pc_20260310_152835_353.laz, 6.591357762, 20260310-152835.356794, 1773124115263498000
152835.470724, 6.648370237, 20260310-15:28:35-450000, 35.93917355666667, 126.54887127166667, 6.7225, 4, 1.5, 371392268.4144, 159294207.3043, 268.095, 6.663328764, -312.31, 9820.03, -2322.75, 8.172, -33.618, -41.930, 91.941, -2.200, 0.245, 0.626, 6.6965125, 1385.0, 18.050, 0.0, 46.20, 3.00, 3.00, 336.00, 129.60, 328.20, 18.00, 17.40, 15.000, 17.000, 1.000, 112.000, 11.000, 34.000, 6.000, 1.000, 6.682364152, pc_20260310_152835_451.laz, 6.691393503, 20260310-152835.456900, 1773124115363432000
152835.571138, 6.74803874, 20260310-15:28:35-550000, 35.939173554999996, 126.54887127833334, 6.721300000000003, 4, 1.5, 371392268.2741, 159294207.7444, 268.103, 6.763344158, -312.79, 9820.02, -2323.14, 8.187, -33.621, -41.924, 91.945, -2.100, 0.243, 0.642, 6.79723943, 1386.0, 13.050, 0.0, 46.20, 3.00, 3.00, 334.80, 129.60, 327.00, 19.80, 18.60, 54.000, 21.000, 1.000, 78.000, 12.000, 20.000, 2.000, 1.000, 6.782589362, pc_20260310_152835_551.laz, 6.79379965, 20260310-152835.559265, 1773124115463497000
152835.670810, 6.847912673, 20260310-15:28:35-650000, 35.93917355, 126.54887127833334, 6.718500000000002, 4, 1.6, 371392267.7869, 159294207.5726, 268.074, 6.863320749, -313.54, 9820.18, -2323.29, 8.170, -33.617, -41.921, 91.948, -2.100, 0.247, 0.628, 6.896631632, 1364.0, 10.900, 0.0, 46.80, 3.00, 3.00, 333.00, 130.20, 324.60, 20.40, 19.80, 93.000, 14.000, 1.000, 41.000, 7.000, 16.000, 4.000, 3.000, 6.881976112, pc_20260310_152835_651.laz, 6.89367049, 20260310-152835.659143, 1773124115563520000
152835.771488, 6.948328709, 20260310-15:28:35-750000, 35.939173548333336, 126.54887128833333, 6.717300000000002, 4, 1.8, 371392267.5213, 159294208.6611, 268.05, 6.963341494, -312.51, 9818.83, -2321.65, 8.209, -33.635, -41.959, 91.944, -2.100, 0.239, 0.648, 6.996896404, 1333.0, 3.300, 0.0, 46.80, 3.00, 2.40, 331.20, 129.60, 322.80, 20.40, 19.80, 113.000, 12.000, 1.000, 27.000, 9.000, 15.000, 8.000, 7.000, 6.982482073, pc_20260310_152835_751.laz, 6.999026514, 20260310-152835.764488, 1773124115663527000
152835.870772, 7.048294159, 20260310-15:28:35-850000, 35.93917355, 126.54887128166666, 6.716000000000005, 4, 1.9, 371392267.7207, 159294208.0467, 268.055, 7.063379394, -312.82, 9818.43, -2323.31, 8.191, -33.657, -41.927, 91.944, -2.100, 0.246, 0.634, 7.097008243, 1346.5, 6.850, 0.0, 46.80, 3.00, 3.00, 330.00, 130.20, 321.00, 21.00, 19.80, 163.000, 15.000, 0.000, 17.000, 10.000, 17.000, 9.000, 3.000, 7.082620483, pc_20260310_152835_851.laz, 7.095529128, 20260310-152835.861001, 1773124115763461000
152835.970435, 7.147962379, 20260310-15:28:35-950000, 35.939173545, 126.54887128833333, 6.716600000000003, 4, 2.0, 371392267.1519, 159294208.6664, 268.056, 7.163343129, -312.65, 9818.35, -2322.62, 8.205, -33.665, -41.925, 91.944, -2.100, 0.243, 0.642, 7.197447548, 1338.5, 6.400, 0.0, 49.20, 3.00, 3.00, 328.80, 129.60, 319.20, 20.40, 19.80, 202.000, 17.000, 3.000, 15.000, 11.000, 14.000, 7.000, 4.000, 7.18504817, pc_20260310_152835_954.laz, 7.193295555, 20260310-152835.958757, 1773124115863459000
152836.071264, 7.249319274, 20260310-15:28:36-050000, 35.93917355333333, 126.54887129, 6.717700000000004, 4, 2.0, 371392268.0441, 159294208.8542, 268.05, 7.263338574, -312.53, 9817.21, -2322.99, 8.241, -33.678, -41.944, 91.943, -2.100, 0.245, 0.673, 7.29670013, 1348.0, 10.000, 0.0, 64.20, 3.00, 3.00, 327.60, 129.00, 318.60, 19.80, 19.20, 237.000, 16.000, 1.000, 8.000, 8.000, 11.000, 5.000, 5.000, 7.284656172, pc_20260310_152836_053.laz, 7.292066908, 20260310-152836.057575, 1773124115963444000
152836.171114, 7.34893817, 20260310-15:28:36-150000, 35.939173595, 126.54887128166666, 6.718800000000002, 4, 2.2, 371392272.5727, 159294208.2191, 268.053, 7.3633223, -312.00, 9814.78, -2322.25, 8.356, -33.702, -42.004, 91.941, -2.100, 0.244, 0.770, 7.397008679, 1343.0, 9.200, 0.0, 94.80, 3.00, 3.00, 325.80, 123.60, 321.60, 19.80, 19.20, 254.000, 15.000, 1.000, 7.000, 8.000, 10.000, 5.000, 3.000, 7.382101144, pc_20260310_152836_151.laz, 7.391552873, 20260310-152836.157031, 1773124116063431000
152836.271408, 7.449164779, 20260310-15:28:36-250000, 35.93917365666667, 126.54887127333333, 6.724800000000002, 4, 1.3, 371392279.2888, 159294207.5585, 268.022, 7.463323691, -311.81, 9814.31, -2317.96, 8.534, -33.727, -42.025, 91.940, -2.200, 0.248, 0.909, 7.4976248850000005, 1327.0, 13.350, 0.0, 140.40, 3.00, 3.00, 324.60, 122.40, 321.00, 19.20, 18.60, 256.000, 11.000, 3.000, 8.000, 9.000, 9.000, 5.000, 4.000, 7.481728516, pc_20260310_152836_251.laz, 7.496559702, 20260310-152836.261833, 1773124116163457000
152836.372301, 7.548194444, 20260310-15:28:36-350000, 35.939173755, 126.54887126, 6.733400000000003, 4, 1.4, 371392289.9371, 159294206.6657, 268.026, 7.563349837, -311.41, 9825.76, -2297.19, 8.828, -33.712, -41.817, 91.935, -2.200, 0.257, 1.100, 7.59704032, 1331.5, 22.800, 0.0, 186.00, 3.60, 3.00, 324.00, 131.40, 311.40, 19.20, 18.60, 259.000, 15.000, 0.000, 7.000, 9.000, 13.000, 3.000, 4.000, 7.582336359, pc_20260310_152836_352.laz, 7.593600156, 20260310-152836.359058, 1773124116263448000
152836.472734, 7.649193368, 20260310-15:28:36-450000, 35.93917389, 126.54887124, 6.748000000000001, 4, 1.5, 371392304.7210, 159294204.7923, 268.037, 7.663346861, -311.90, 9842.17, -2232.11, 9.445, -33.705, -41.785, 91.938, -2.100, 0.254, 1.335, 7.697226114, 1343.0, 24.000, 0.0, 203.40, 4.20, 3.00, 322.80, 135.00, 306.60, 19.20, 18.60, 248.000, 13.000, 1.000, 3.000, 5.000, 11.000, 4.000, 3.000, 7.683433668, pc_20260310_152836_453.laz, 7.697282308, 20260310-152836.462739, 1773124116363437000
152836.570548, 7.748515778, 20260310-15:28:36-550000, 35.93917398666667, 126.54887122166667, 6.759200000000003, 4, 1.5, 371392315.2132, 159294203.7430, 268.012, 7.763362927, -309.76, 9870.96, -2110.60, 10.195, -33.688, -41.751, 91.927, -2.100, 0.237, 1.378, 7.796819026, 1346.5, 21.650, 0.0, 201.00, 4.80, 3.00, 322.20, 136.80, 304.20, 19.20, 18.60, 233.000, 9.000, 2.000, 3.000, 9.000, 7.000, 5.000, 2.000, 7.780566514, pc_20260310_152836_550.laz, 7.793870396, 20260310-152836.559332, 1773124116463460000
152836.671105, 7.847814148, 20260310-15:28:36-650000, 35.939173921666665, 126.54887122, 6.747600000000002, 4, 1.6, 371392308.1659, 159294203.7581, 268.042, 7.863415386, -310.03, 9906.80, -1943.20, 10.953, -33.675, -41.724, 91.922, -2.100, 0.248, 1.164, 7.897043573, 1351.5, 22.450, 0.0, 187.20, 5.40, 3.00, 321.60, 138.60, 301.20, 19.20, 18.60, 203.000, 1.000, 0.000, 5.000, 10.000, 6.000, 4.000, 4.000, 7.880860637, pc_20260310_152836_651.laz, 7.890926787, 20260310-152836.656403, 1773124116563462000
152836.770708, 7.947891512, 20260310-15:28:36-750000, 35.93917375, 126.54887125833334, 6.724300000000003, 4, 1.8, 371392289.4203, 159294206.8616, 268.051, 7.963326171, -311.37, 9938.70, -1740.98, 11.932, -33.757, -41.822, 91.928, -2.100, 0.249, 0.926, 7.997310009, 1380.0, 22.300, 0.0, 146.40, 5.40, 3.60, 321.00, 144.00, 295.80, 19.20, 18.60, 181.000, 1.000, 0.000, 5.000, 9.000, 10.000, 4.000, 3.000, 7.983904872, pc_20260310_152836_753.laz, 7.995111801, 20260310-152836.760575, 1773124116663451000
152836.871237, 8.048626017, 20260310-15:28:36-850000, 35.939173575, 126.54887130166667, 6.7097000000000016, 4, 1.9, 371392269.9892, 159294211.0626, 268.032, 8.063321806, -310.47, 9975.94, -1577.50, 12.639, -33.631, -41.649, 91.920, -2.100, 0.242, 0.746, 8.096966475, 1357.5, 8.550, 0.0, 102.60, 5.40, 3.60, 320.40, 148.20, 291.00, 18.60, 18.00, 166.000, 3.000, 5.000, 5.000, 7.000, 8.000, 4.000, 4.000, 8.08241363, pc_20260310_152836_852.laz, 8.097675999, 20260310-152836.863127, 1773124116763472000
152836.971484, 8.147455223, 20260310-15:28:36-950000, 35.939173526666664, 126.54887130666667, 6.7115000000000045, 4, 2.0, 371392264.3961, 159294212.2469, 268.09, 8.163329847, -308.04, 9994.00, -1462.21, 13.239, -33.620, -41.655, 91.904, -2.200, 0.249, 0.681, 8.196536634, 1352.5, 8.300, 0.0, 75.60, 4.20, 4.20, 319.80, 151.80, 288.00, 18.60, 18.00, 154.000, 2.000, 0.000, 3.000, 7.000, 9.000, 3.000, 3.000, 8.185245511, pc_20260310_152836_954.laz, 8.194758247, 20260310-152836.960254, 1773124116863459000
152837.072138, 8.24956615, 20260310-15:28:37-050000, 35.939173591666666, 126.54887128666667, 6.720500000000005, 4, 2.0, 371392271.3264, 159294211.1389, 268.139, 8.263328848, -305.54, 9998.28, -1420.87, 13.569, -33.632, -41.706, 91.890, -2.200, 0.248, 0.762, 8.296586487999999, 1348.5, 10.400, 0.0, 82.20, 3.60, 4.20, 318.60, 152.40, 286.80, 18.60, 17.40, 138.000, 5.000, 3.000, 3.000, 7.000, 11.000, 2.000, 3.000, 8.281672568, pc_20260310_152837_051.laz, 8.292570947, 20260310-152837.058048, 1773124116963447000
152837.171221, 8.348772933, 20260310-15:28:37-150000, 35.93917365666667, 126.54887129166667, 6.728400000000004, 4, 2.2, 371392278.3238, 159294212.0258, 268.169, 8.363349529, -304.13, 9993.02, -1435.54, 13.592, -33.659, -41.784, 91.882, -2.200, 0.258, 0.851, 8.39809184, 1354.0, 12.700, 0.0, 114.60, 3.00, 3.60, 318.00, 148.80, 289.20, 18.00, 17.40, 113.000, 9.000, 4.000, 3.000, 10.000, 7.000, 1.000, 3.000, 8.382752232, pc_20260310_152837_152.laz, 8.395848575, 20260310-152837.161335, 1773124117063455000
152837.270784, 8.448282811, 20260310-15:28:37-250000, 35.93917372333333, 126.548871285, 6.735800000000001, 4, 1.3, 371392285.1850, 159294212.5892, 268.176, 8.463328254, -299.71, 9987.78, -1466.54, 13.582, -33.668, -41.802, 91.859, -2.200, 0.250, 1.014, 8.497565549, 1368.5, 11.450, 0.0, 145.20, 3.00, 3.60, 316.80, 145.80, 292.20, 17.40, 16.80, 95.000, 10.000, 0.000, 1.000, 11.000, 8.000, 1.000, 4.000, 8.482072982, pc_20260310_152837_253.laz, 8.492579836, 20260310-152837.258048, 1773124117163477000
152837.370685, 8.548336937, 20260310-15:28:37-350000, 35.93917378, 126.54887125666667, 6.739100000000004, 4, 1.4, 371392291.1085, 159294210.9073, 268.165, 8.563334129, -296.49, 9984.90, -1485.67, 13.552, -33.667, -41.808, 91.841, -2.200, 0.245, 1.094, 8.597145276, 1375.0, 8.250, 0.0, 163.80, 3.00, 3.60, 316.20, 143.40, 294.00, 16.80, 16.20, 45.000, 6.000, 4.000, 90.000, 10.000, 11.000, 2.000, 6.000, 8.581688071, pc_20260310_152837_352.laz, 8.594120708, 20260310-152837.359559, 1773124117263471000
152837.470471, 8.647850707, 20260310-15:28:37-450000, 35.939173775, 126.54887123166667, 6.739000000000001, 4, 1.5, 371392290.4116, 159294209.1659, 268.19, 8.663323823, -294.84, 9986.18, -1480.78, 13.541, -33.664, -41.794, 91.830, -2.200, 0.253, 1.058, 8.697666088, 1381.5, 7.000, 0.0, 168.00, 3.00, 3.60, 315.60, 142.20, 294.60, 16.80, 16.20, 32.000, 3.000, 8.000, 140.000, 11.000, 70.000, 0.000, 2.000, 8.681750618, pc_20260310_152837_453.laz, 8.69396278, 20260310-152837.459416, 1773124117363473000
152837.571068, 8.748330219, 20260310-15:28:37-550000, 35.93917372, 126.54887123666667, 6.732200000000002, 4, 1.5, 371392284.2882, 159294209.8203, 268.166, 8.763358473, -294.12, 9990.60, -1455.42, 13.613, -33.657, -41.781, 91.825, -2.200, 0.255, 0.988, 8.797170261, 1338.5, 0.850, 0.0, 158.40, 3.00, 3.00, 315.00, 142.20, 294.60, 16.20, 15.60, 26.000, 8.000, 4.000, 165.000, 31.000, 173.000, 4.000, 5.000, 8.782420659, pc_20260310_152837_552.laz, 8.794223264, 20260310-152837.559672, 1773124117463461000
152837.670580, 8.848240331, 20260310-15:28:37-650000, 35.939173663333335, 126.54887122833334, 6.725100000000001, 4, 1.6, 371392277.9434, 159294209.3604, 268.162, 8.863335596, -293.12, 9998.25, -1424.09, 13.719, -33.648, -41.682, 91.819, -2.200, 0.256, 0.925, 8.897098703, 1333.0, 8.700, 0.0, 142.20, 3.60, 3.60, 314.40, 121.20, 277.20, 16.20, 15.60, 22.000, 9.000, 8.000, 167.000, 23.000, 211.000, 3.000, 9.000, 8.881898446, pc_20260310_152837_652.laz, 8.901033986, 20260310-152837.666500, 1773124117563463000
152837.770622, 8.948090739, 20260310-15:28:37-750000, 35.93917364666667, 126.54887123500001, 6.723200000000002, 4, 1.8, 371392276.1573, 159294209.8078, 268.179, 8.963318604, -295.43, 10058.44, -1389.03, 13.714, -33.635, -39.660, 91.822, -2.200, 0.257, 0.908, 8.996561148, 1346.0, 14.050, 0.0, 138.00, 4.80, 4.20, 314.40, 64.20, 163.80, 16.80, 15.60, 18.000, 17.000, 5.000, 162.000, 12.000, 209.000, 4.000, 4.000, 8.982070764, pc_20260310_152837_752.laz, 8.993513251, 20260310-152837.759014, 1773124117663465000
152837.870943, 9.049072701, 20260310-15:28:37-850000, 35.939173675, 126.54887122833334, 6.725900000000003, 4, 1.9, 371392279.3955, 159294208.8387, 268.175, 9.06332612, -298.51, 10115.87, -1365.81, 13.701, -33.637, -37.604, 91.830, -2.200, 0.257, 0.961, 9.096868545, 1360.5, 15.600, 0.0, 139.20, 4.20, 3.60, 316.80, 30.00, 100.20, 17.40, 16.80, 16.000, 70.000, 2.000, 158.000, 7.000, 206.000, 7.000, 4.000, 9.083348855, pc_20260310_152837_853.laz, 9.098197799, 20260310-152837.863682, 1773124117763456000
152837.970894, 9.147804222, 20260310-15:28:37-950000, 35.93917372, 126.54887122, 6.728600000000004, 4, 2.0, 371392284.3827, 159294208.0949, 268.165, 9.163331252, -300.04, 10168.80, -1346.07, 13.636, -33.648, -35.635, 91.830, -2.200, 0.251, 0.980, 9.198011166, 1359.0, 15.800, 0.0, 149.40, 4.20, 4.20, 325.20, 18.60, 84.60, 18.60, 18.00, 15.000, 102.000, 3.000, 159.000, 8.000, 208.000, 8.000, 9.000, 9.182443627, pc_20260310_152837_953.laz, 9.194503704, 20260310-152837.959980, 1773124117863468000
152838.070750, 9.249428154, 20260310-15:28:38-050000, 35.939173716666666, 126.54887121333333, 6.7302, 4, 2.0, 371392284.1290, 159294207.1262, 268.158, 9.263332081, -303.28, 10228.87, -1318.47, 13.577, -33.685, -33.321, 91.838, -2.200, 0.257, 0.997, 9.297513676, 1358.5, 15.150, 0.0, 157.20, 4.20, 4.20, 329.40, 14.40, 78.60, 19.80, 19.20, 14.000, 124.000, 5.000, 158.000, 9.000, 214.000, 7.000, 2.000, 9.282666315, pc_20260310_152838_052.laz, 9.29595315, 20260310-152838.061424, 1773124117963525000
152838.171191, 9.34901636, 20260310-15:28:38-150000, 35.93917372166667, 126.54887121333333, 6.728600000000004, 4, 2.2, 371392284.7688, 159294206.8636, 268.175, 9.363342483, -306.05, 10290.01, -1273.69, 13.580, -33.678, -31.041, 91.843, -2.200, 0.258, 1.007, 9.396649167, 1356.5, 15.050, 0.0, 155.40, 4.80, 4.20, 330.00, 13.20, 76.80, 21.00, 20.40, 14.000, 125.000, 1.000, 157.000, 7.000, 210.000, 7.000, 4.000, 9.380517709, pc_20260310_152838_150.laz, 9.393505331, 20260310-152838.158963, 1773124118063442000
152838.270553, 9.448349222, 20260310-15:28:38-250000, 35.93917371333333, 126.54887122333334, 6.727900000000002, 4, 1.3, 371392283.8669, 159294207.8002, 268.167, 9.463335878, -307.60, 10352.46, -1218.88, 13.560, -33.671, -28.664, 91.842, -2.200, 0.253, 0.963, 9.497921456, 1354.5, 15.100, 0.0, 146.40, 4.80, 4.20, 330.60, 13.20, 73.20, 22.20, 21.60, 13.000, 146.000, 2.000, 157.000, 4.000, 209.000, 6.000, 8.000, 9.481616699, pc_20260310_152838_251.laz, 9.495346725, 20260310-152838.260803, 1773124118163450000
152838.370882, 9.548570893, 20260310-15:28:38-350000, 35.93917368166667, 126.54887122333334, 6.726300000000002, 4, 1.4, 371392280.4451, 159294207.6388, 268.134, 9.563336, -309.89, 10413.37, -1164.48, 13.513, -33.657, -26.251, 91.845, -2.200, 0.253, 0.917, 9.596583172999999, 1353.5, 15.350, 0.0, 126.60, 4.80, 4.80, 330.60, 13.80, 69.60, 23.40, 22.80, 14.000, 158.000, 4.000, 138.000, 6.000, 207.000, 7.000, 2.000, 9.580093583, pc_20260310_152838_349.laz, 9.592771574, 20260310-152838.358236, 1773124118263472000
152838.471284, 9.64849055, 20260310-15:28:38-450000, 35.939173653333334, 126.54887122833334, 6.722300000000001, 4, 1.5, 371392277.3389, 159294208.0977, 268.14, 9.663376708, -311.61, 10470.88, -1130.79, 13.316, -33.651, -23.759, 91.845, -2.200, 0.256, 0.856, 9.697649984, 1371.0, 15.750, 0.0, 109.20, 4.20, 4.80, 330.00, 14.40, 66.00, 24.60, 24.00, 11.000, 167.000, 5.000, 129.000, 5.000, 204.000, 4.000, 3.000, 9.681321059, pc_20260310_152838_451.laz, 9.69388021, 20260310-152838.459334, 1773124118363454000
152838.570477, 9.74955675, 20260310-15:28:38-550000, 35.939173628333336, 126.54887123666667, 6.719200000000004, 4, 1.5, 371392274.4989, 159294209.0499, 268.149, 9.763333657, -312.63, 10523.85, -1134.67, 12.929, -33.652, -21.151, 91.840, -2.200, 0.262, 0.837, 9.79661267, 1368.0, 12.650, 0.0, 103.80, 3.60, 4.80, 328.80, 16.20, 72.00, 25.20, 24.60, 10.000, 168.000, 3.000, 128.000, 4.000, 209.000, 3.000, 6.000, 9.780002937999999, pc_20260310_152838_549.laz, 9.792912754, 20260310-152838.558403, 1773124118463478000
152838.671167, 9.847492089, 20260310-15:28:38-650000, 35.93917364166667, 126.54887123, 6.721400000000003, 4, 1.6, 371392275.8426, 159294208.7135, 268.141, 9.863364397, -313.32, 10576.04, -1171.50, 12.391, -33.657, -18.241, 91.835, -2.200, 0.256, 0.897, 9.897151498, 1354.0, 11.300, 0.0, 115.80, 3.00, 4.80, 327.60, 18.00, 76.20, 25.20, 24.60, 10.000, 169.000, 1.000, 123.000, 5.000, 204.000, 2.000, 2.000, 9.879822974, pc_20260310_152838_650.laz, 9.895697215, 20260310-152838.661167, 1773124118563461000
152838.770415, 9.949177384, 20260310-15:28:38-750000, 35.939173685, 126.54887121833333, 6.726000000000003, 4, 0.8, 371392280.4877, 159294207.9733, 268.131, 9.963331206, -313.80, 10617.34, -1243.24, 11.684, -33.599, -15.633, 91.829, -2.200, 0.256, 0.973, 9.997273321, 1345.0, 11.800, 0.0, 138.60, 2.40, 4.80, 326.40, 18.60, 82.80, 25.20, 24.60, 11.000, 173.000, 6.000, 117.000, 5.000, 192.000, 2.000, 3.000, 9.981859262, pc_20260310_152838_751.laz, 9.995772382, 20260310-152838.761239, 1773124118663696000
152838.871214, 10.047880854, 20260310-15:28:38-850000, 35.93917373666667, 126.54887120833334, 6.732800000000001, 4, 0.9, 371392286.1290, 159294207.1663, 268.135, 10.063390952, -314.96, 10658.15, -1286.40, 11.151, -33.677, -12.798, 91.828, -2.200, 0.255, 1.051, 10.096605618, 1349.0, 13.600, 0.0, 157.80, 3.00, 4.80, 325.80, 20.40, 89.40, 25.20, 24.60, 8.000, 178.000, 0.000, 115.000, 6.000, 184.000, 2.000, 7.000, 10.080091481, pc_20260310_152838_849.laz, 10.097964922, 20260310-152838.863424, 1773124118763471000
152838.970959, 10.148483762, 20260310-15:28:38-950000, 35.93917377, 126.54887120166667, 6.737000000000002, 4, 0.9, 371392289.6924, 159294206.9129, 268.152, 10.163332057, -314.86, 10691.39, -1323.94, 10.619, -33.671, -10.447, 91.821, -2.200, 0.254, 1.072, 10.200300506, 1356.5, 13.850, 0.0, 164.40, 3.00, 4.80, 324.60, 20.40, 88.20, 25.20, 24.00, 10.000, 171.000, 1.000, 110.000, 6.000, 180.000, 4.000, 1.000, 10.179907475, pc_20260310_152838_949.laz, 10.195917562, 20260310-152838.961372, 1773124118863458000
152839.071298, 10.249351995, 20260310-15:28:39-050000, 35.939173751666665, 126.54887120166667, 6.734400000000004, 4, 1.0, 371392287.6968, 159294206.9337, 268.163, 10.263339987, -315.80, 10719.06, -1343.52, 10.158, -33.667, -8.455, 91.820, -2.200, 0.257, 1.018, 10.296825713, 1354.5, 10.400, 0.0, 157.80, 3.60, 4.80, 323.40, 19.20, 82.80, 24.60, 24.00, 8.000, 165.000, 6.000, 95.000, 6.000, 179.000, 5.000, 3.000, 10.279556829, pc_20260310_152839_048.laz, 10.294349289, 20260310-152839.059789, 1773124118963430000
152839.171071, 10.348664351, 20260310-15:28:39-150000, 35.93917370166667, 126.54887121666667, 6.729200000000002, 4, 1.1, 371392282.2446, 159294208.1299, 268.183, 10.363324188, -317.22, 10743.91, -1354.08, 9.757, -33.658, -6.630, 91.823, -2.200, 0.258, 0.956, 10.396733866, 1350.0, 8.750, 0.0, 144.00, 3.60, 4.80, 322.80, 19.20, 76.20, 24.00, 23.40, 8.000, 162.000, 0.000, 21.000, 3.000, 163.000, 7.000, 6.000, 10.379776944, pc_20260310_152839_149.laz, 10.393732947, 20260310-152839.159175, 1773124119063458000
152839.270519, 10.44927782, 20260310-15:28:39-250000, 35.939173675, 126.54887121833333, 6.724700000000002, 4, 1.3, 371392279.3209, 159294208.2359, 268.175, 10.463335659, -318.05, 10763.54, -1379.47, 9.325, -33.607, -5.040, 91.824, -2.200, 0.256, 0.928, 10.497149426, 1341.0, 5.950, 0.0, 129.60, 3.60, 4.80, 322.20, 22.80, 70.80, 24.00, 22.80, 10.000, 163.000, 4.000, 16.000, 3.000, 141.000, 6.000, 3.000, 10.479345218, pc_20260310_152839_250.laz, 10.493317347, 20260310-152839.258756, 1773124119163458000
152839.371418, 10.547901008, 20260310-15:28:39-350000, 35.93917366833333, 126.54887122, 6.7272, 4, 1.4, 371392278.6456, 159294208.2190, 268.173, 10.563328956, -319.02, 10765.58, -1431.72, 8.931, -33.652, -4.245, 91.827, -2.200, 0.257, 0.920, 10.597136558, 1348.0, 7.100, 0.0, 123.60, 2.40, 4.80, 321.00, 26.40, 73.80, 23.40, 22.80, 8.000, 162.000, 4.000, 11.000, 3.000, 126.000, 3.000, 4.000, 10.58009038, pc_20260310_152839_351.laz, 10.595118547, 20260310-152839.360588, 1773124119263439000
152839.471020, 10.649620278, 20260310-15:28:39-450000, 35.93917367666667, 126.54887122833334, 6.730400000000003, 4, 1.5, 371392279.5772, 159294208.9050, 268.173, 10.663343075, -319.51, 10757.24, -1518.85, 8.432, -33.657, -3.937, 91.828, -2.200, 0.261, 0.936, 10.696651836, 1353.0, 6.900, 0.0, 128.40, 1.80, 4.80, 320.40, 26.40, 76.20, 22.80, 21.60, 8.000, 159.000, 3.000, 8.000, 5.000, 121.000, 1.000, 4.000, 10.679209253, pc_20260310_152839_448.laz, 10.693126293, 20260310-152839.458613, 1773124119363456000
152839.571388, 10.747939906, 20260310-15:28:39-550000, 35.9391737, 126.54887122833334, 6.734000000000002, 4, 1.5, 371392282.1414, 159294208.8798, 268.158, 10.763338387, -319.59, 10743.80, -1621.38, 7.905, -33.669, -3.778, 91.829, -2.200, 0.259, 0.981, 10.798280423, 1357.0, 6.250, 0.0, 142.20, 1.80, 4.80, 319.80, 23.40, 76.20, 22.20, 21.60, 7.000, 152.000, 0.000, 7.000, 5.000, 114.000, 2.000, 5.000, 10.778331473, pc_20260310_152839_547.laz, 10.798315112, 20260310-152839.563755, 1773124119463480000
152839.671403, 10.847599197, 20260310-15:28:39-650000, 35.93917372666667, 126.54887123333333, 6.7387000000000015, 4, 1.6, 371392285.0785, 159294209.2783, 268.145, 10.863345986, -319.76, 10729.11, -1720.06, 7.412, -33.678, -3.692, 91.831, -2.200, 0.257, 1.029, 10.896514768, 1358.0, 5.500, 0.0, 158.40, 1.80, 4.80, 318.60, 20.40, 76.20, 21.60, 21.00, 7.000, 159.000, 7.000, 6.000, 4.000, 103.000, 3.000, 4.000, 10.878565205, pc_20260310_152839_648.laz, 10.892299349, 20260310-152839.657783, 1773124119563446000
152839.771543, 10.948556896, 20260310-15:28:39-750000, 35.939173745, 126.54887122833334, 6.741200000000003, 4, 0.8, 371392286.9996, 159294209.0422, 268.158, 10.963365367, -318.82, 10717.10, -1797.83, 7.027, -33.671, -3.642, 91.826, -2.200, 0.255, 1.074, 10.997763024, 1356.5, 5.550, 0.0, 165.60, 2.40, 4.80, 318.00, 18.00, 75.00, 21.00, 20.40, 6.000, 150.000, 1.000, 4.000, 7.000, 98.000, 3.000, 3.000, 10.979736026, pc_20260310_152839_749.laz, 10.993520757, 20260310-152839.758999, 1773124119663458000
152839.870429, 11.047435765, 20260310-15:28:39-850000, 35.93917374833333, 126.54887121333333, 6.739600000000003, 4, 0.9, 371392287.4032, 159294207.6982, 268.157, 11.063340692, -318.84, 10708.98, -1849.57, 6.704, -33.665, -3.593, 91.826, -2.200, 0.257, 1.041, 11.096572138, 1357.0, 5.850, 0.0, 162.60, 3.00, 4.80, 317.40, 16.80, 72.60, 20.40, 19.80, 5.000, 145.000, 2.000, 5.000, 7.000, 92.000, 5.000, 6.000, 11.07899389, pc_20260310_152839_848.laz, 11.092947168, 20260310-152839.858430, 1773124119763464000
152839.971281, 11.149002538, 20260310-15:28:39-950000, 35.93917371333333, 126.54887122833334, 6.734300000000001, 4, 0.9, 371392283.6210, 159294208.8990, 268.164, 11.163343552, -319.39, 10703.88, -1882.96, 6.447, -33.655, -3.550, 91.829, -2.200, 0.257, 0.976, 11.196552101, 1355.5, 5.650, 0.0, 150.60, 3.00, 4.80, 316.80, 17.40, 69.60, 19.80, 19.20, 8.000, 142.000, 6.000, 4.000, 0.000, 88.000, 6.000, 2.000, 11.178955265, pc_20260310_152839_948.laz, 11.193634065, 20260310-152839.959107, 1773124119863427000
152840.071628, 11.249941253, 20260310-15:28:40-050000, 35.93917367833333, 126.54887124666666, 6.732000000000003, 4, 1.0, 371392279.7280, 159294210.6042, 268.142, 11.263377696, -319.02, 10698.70, -1915.09, 6.241, -33.646, -3.526, 91.827, -2.200, 0.253, 0.951, 11.298103151, 1354.5, 4.800, 0.0, 136.20, 3.00, 4.80, 316.20, 18.60, 67.20, 19.20, 18.60, 4.000, 141.000, 3.000, 2.000, 2.000, 80.000, 7.000, 3.000, 11.283388943, pc_20260310_152840_054.laz, 11.29546653, 20260310-152840.060910, 1773124119963470000
152840.170992, 11.348964205, 20260310-15:28:40-150000, 35.93917367666667, 126.54887124166666, 6.729900000000004, 4, 1.1, 371392279.5411, 159294210.2025, 268.155, 11.363342386, -318.75, 10690.28, -1961.41, 5.973, -33.642, -3.530, 91.826, -2.200, 0.252, 0.935, 11.397774881, 1354.0, 5.000, 0.0, 129.60, 2.40, 4.80, 315.60, 19.20, 66.00, 18.60, 18.00, 6.000, 140.000, 2.000, 4.000, 4.000, 76.000, 6.000, 6.000, 11.379761349, pc_20260310_152840_149.laz, 11.394279931, 20260310-152840.159767, 1773124120063437000
152840.270474, 11.449906831, 20260310-15:28:40-250000, 35.939173688333334, 126.54887123666667, 6.731400000000004, 4, 1.3, 371392280.8058, 159294209.7871, 268.149, 11.463394614, -318.55, 10678.50, -2028.20, 5.624, -33.612, -3.537, 91.826, -2.200, 0.253, 0.960, 11.497389938, 1355.5, 5.150, 0.0, 134.40, 2.40, 4.80, 315.00, 19.80, 65.40, 18.60, 18.00, 7.000, 141.000, 6.000, 6.000, 4.000, 59.000, 4.000, 4.000, 11.478762329, pc_20260310_152840_248.laz, 11.49491985, 20260310-152840.260385, 1773124120163441000
152840.371625, 11.547842411, 20260310-15:28:40-350000, 35.93917371333333, 126.54887124333334, 6.734600000000004, 4, 1.4, 371392283.6170, 159294210.1863, 268.136, 11.563354753, -319.08, 10664.05, -2094.56, 5.328, -33.657, -3.551, 91.830, -2.200, 0.250, 1.003, 11.597544531, 1357.5, 5.050, 0.0, 145.80, 2.40, 4.80, 314.40, 18.00, 66.00, 18.00, 17.40, 11.000, 139.000, 1.000, 5.000, 8.000, 33.000, 5.000, 3.000, 11.578188711, pc_20260310_152840_347.laz, 11.599231652, 20260310-152840.364612, 1773124120263430000
152840.471570, 11.647906443, 20260310-15:28:40-450000, 35.93917372833333, 126.54887123500001, 6.738200000000003, 4, 1.5, 371392285.3044, 159294209.3033, 268.149, 11.663337537, -319.50, 10651.17, -2154.91, 5.042, -33.682, -3.550, 91.833, -2.200, 0.251, 1.035, 11.697171556, 1358.0, 4.850, 0.0, 155.40, 2.40, 4.80, 313.80, 17.40, 66.60, 17.40, 16.80, 9.000, 138.000, 6.000, 8.000, 9.000, 21.000, 2.000, 7.000, 11.678894451, pc_20260310_152840_448.laz, 11.695912351, 20260310-152840.461359, 1773124120363452000
152840.570639, 11.748795679, 20260310-15:28:40-550000, 35.93917374, 126.54887122833334, 6.7389000000000046, 4, 1.5, 371392286.6618, 159294208.5369, 268.143, 11.763346102, -320.12, 10644.84, -2193.20, 4.815, -33.668, -3.457, 91.837, -2.200, 0.251, 1.036, 11.797158016, 1358.5, 4.850, 0.0, 156.00, 3.00, 4.80, 313.20, 23.40, 63.60, 16.80, 16.20, 10.000, 114.000, 3.000, 5.000, 10.000, 18.000, 2.000, 3.000, 11.779018884, pc_20260310_152840_548.laz, 11.797204769, 20260310-152840.562681, 1773124120463507000
152840.671415, 11.849089804, 20260310-15:28:40-650000, 35.93917372, 126.548871225, 6.735800000000001, 4, 1.6, 371392284.5504, 159294208.0427, 268.146, 11.863353938, -320.87, 10644.09, -2195.48, 4.760, -33.658, -3.498, 91.841, -2.200, 0.252, 0.991, 11.897822223, 1356.5, 4.900, 0.0, 143.40, 3.00, 4.80, 312.60, 22.80, 63.60, 16.80, 15.60, 10.000, 79.000, 3.000, 4.000, 12.000, 19.000, 2.000, 3.000, 11.8790232, pc_20260310_152840_648.laz, 11.896453575, 20260310-152840.661910, 1773124120563467000
152840.770723, 11.949141227, 20260310-15:28:40-750000, 35.93917368333334, 126.54887123666667, 6.730800000000002, 4, 1.8, 371392280.4801, 159294209.2031, 268.132, 11.963370524, -320.46, 10644.94, -2190.61, 4.732, -33.662, -3.502, 91.838, -2.200, 0.253, 0.935, 11.997875053, 1359.5, 4.700, 0.0, 136.80, 3.00, 4.80, 312.00, 21.60, 64.20, 16.20, 15.60, 8.000, 14.000, 5.000, 4.000, 8.000, 11.000, 3.000, 9.000, 11.978926002, pc_20260310_152840_748.laz, 11.994659247, 20260310-152840.760104, 1773124120663444000
152840.870703, 12.049221808, 20260310-15:28:40-850000, 35.939173673333336, 126.54887123333333, 6.730700000000002, 4, 1.9, 371392279.3899, 159294208.7736, 268.136, 12.06335065, -320.74, 10644.51, -2194.55, 4.738, -33.654, -3.489, 91.840, -2.200, 0.248, 0.967, 12.097035472, 1359.5, 4.650, 0.0, 135.00, 3.00, 4.80, 311.40, 22.20, 63.60, 15.60, 15.00, 9.000, 14.000, 2.000, 4.000, 7.000, 12.000, 4.000, 2.000, 12.079637196, pc_20260310_152840_849.laz, 12.095384416, 20260310-152840.860817, 1773124120763435000
152840.970968, 12.148499938, 20260310-15:28:40-950000, 35.9391737, 126.548871245, 6.7330000000000005, 4, 2.0, 371392282.3268, 159294209.8771, 268.154, 12.163345646, -320.66, 10644.21, -2196.17, 4.733, -33.660, -3.472, 91.840, -2.200, 0.250, 0.971, 12.196691778, 1358.5, 4.650, 0.0, 135.00, 3.00, 4.80, 310.80, 24.00, 63.00, 15.60, 14.40, 6.000, 11.000, 4.000, 4.000, 9.000, 12.000, 4.000, 3.000, 12.17904752, pc_20260310_152840_948.laz, 12.1942791, 20260310-152840.959758, 1773124120863490000
152841.071351, 12.250068592, 20260310-15:28:41-050000, 35.93917369166667, 126.54887124333334, 6.733300000000003, 4, 2.0, 371392281.4231, 159294209.7042, 268.143, 12.263469371, -320.79, 10644.19, -2194.30, 4.731, -33.667, -3.489, 91.840, -2.200, 0.251, 0.955, 12.296918533, 1357.5, 4.700, 0.0, 135.00, 3.00, 4.80, 310.20, 22.80, 63.00, 15.00, 14.40, 8.000, 16.000, 5.000, 3.000, 10.000, 11.000, 4.000, 9.000, 12.278799221, pc_20260310_152841_047.laz, 12.294460158, 20260310-152841.059890, 1773124120963434000
152841.171071, 12.348241126, 20260310-15:28:41-150000, 35.93917368, 126.54887125333333, 6.732700000000005, 4, 2.2, 371392280.1120, 159294210.6030, 268.164, 12.363343573, -320.64, 10644.13, -2195.49, 4.737, -33.659, -3.492, 91.840, -2.200, 0.247, 0.970, 12.396858207, 1360.0, 4.600, 0.0, 135.00, 3.00, 4.80, 309.60, 22.80, 63.00, 14.40, 13.80, 7.000, 9.000, 4.000, 4.000, 6.000, 13.000, 4.000, 3.000, 12.378494517, pc_20260310_152841_146.laz, 12.396416531, 20260310-152841.161896, 1773124121063449000
152841.270454, 12.448524838, 20260310-15:28:41-250000, 35.93917367833333, 126.54887125666667, 6.7326000000000015, 4, 1.3, 371392279.9425, 159294210.8580, 268.152, 12.463353881, -320.83, 10643.78, -2194.73, 4.747, -33.672, -3.503, 91.841, -2.200, 0.248, 0.968, 12.497131555, 1359.0, 4.550, 0.0, 135.00, 3.00, 4.80, 309.00, 22.80, 63.00, 14.40, 13.80, 9.000, 15.000, 3.000, 3.000, 8.000, 9.000, 4.000, 3.000, 12.478500903, pc_20260310_152841_246.laz, 12.494511543, 20260310-152841.259971, 1773124121163424000
152841.370512, 12.546753986, 20260310-15:28:41-350000, 35.93917367666667, 126.54887124833333, 6.731400000000004, 4, 1.4, 371392279.7789, 159294210.0833, 268.128, 12.563359617, -321.11, 10643.65, -2194.97, 4.733, -33.676, -3.497, 91.841, -2.200, 0.254, 0.955, 12.597037981, 1357.5, 4.600, 0.0, 135.00, 3.00, 4.80, 308.40, 22.80, 63.00, 13.80, 13.20, 6.000, 11.000, 4.000, 1.000, 8.000, 8.000, 3.000, 3.000, 12.579500163, pc_20260310_152841_349.laz, 12.595329451, 20260310-152841.360780, 1773124121263575000
152841.470696, 12.647417134, 20260310-15:28:41-450000, 35.939173675, 126.54887126, 6.732500000000002, 4, 1.5, 371392279.6311, 159294211.0027, 268.136, 12.663375457, -321.50, 10643.57, -2195.04, 4.741, -33.679, -3.495, 91.844, -2.200, 0.251, 0.962, 12.696688143, 1355.5, 4.750, 0.0, 135.00, 3.00, 4.80, 308.40, 22.80, 63.00, 13.80, 12.60, 8.000, 7.000, 1.000, 1.000, 9.000, 5.000, 4.000, 4.000, 12.679711161, pc_20260310_152841_448.laz, 12.696306084, 20260310-152841.461745, 1773124121363447000
152841.570460, 12.747413952, 20260310-15:28:41-550000, 35.93917367666667, 126.54887126833333, 6.732500000000002, 4, 1.5, 371392279.8175, 159294211.7596, 268.145, 12.763383754, -321.40, 10643.22, -2195.32, 4.736, -33.686, -3.502, 91.844, -2.200, 0.248, 0.955, 12.796646442, 1357.5, 4.650, 0.0, 135.00, 3.00, 4.80, 307.80, 22.80, 63.00, 13.20, 12.60, 7.000, 4.000, 2.000, 5.000, 5.000, 8.000, 4.000, 5.000, 12.778327521, pc_20260310_152841_546.laz, 12.792731512, 20260310-152841.558207, 1773124121463428000
152841.671169, 12.847149796, 20260310-15:28:41-650000, 35.939173673333336, 126.54887125833334, 6.7330000000000005, 4, 1.6, 371392279.4320, 159294210.9131, 268.118, 12.863380868, -321.24, 10643.24, -2195.41, 4.734, -33.685, -3.502, 91.843, -2.200, 0.250, 0.954, 12.897200406, 1357.0, 4.650, 0.0, 135.00, 3.00, 4.80, 307.20, 22.80, 62.40, 12.60, 12.00, 7.000, 5.000, 4.000, 4.000, 3.000, 9.000, 9.000, 4.000, 12.878717513, pc_20260310_152841_646.laz, 12.89433741, 20260310-152841.659810, 1773124121563498000
152841.770776, 12.947461536, 20260310-15:28:41-750000, 35.93917366666667, 126.54887125833334, 6.733300000000003, 4, 1.8, 371392278.7165, 159294210.8512, 268.158, 12.963379347, -321.52, 10642.90, -2195.07, 4.736, -33.691, -3.519, 91.844, -2.200, 0.252, 0.949, 12.996789318, 1356.5, 4.650, 0.0, 135.00, 3.00, 4.80, 306.60, 22.80, 63.00, 12.60, 12.00, 8.000, 5.000, 0.000, 7.000, 5.000, 8.000, 5.000, 3.000, 12.978694527, pc_20260310_152841_746.laz, 12.993589001, 20260310-152841.759058, 1773124121663444000
152841.870793, 13.048121882, 20260310-15:28:41-850000, 35.93917366666667, 126.54887126166666, 6.733600000000003, 4, 1.9, 371392278.6742, 159294211.2516, 268.173, 13.063371665, -320.83, 10642.75, -2195.40, 4.746, -33.697, -3.513, 91.842, -2.200, 0.243, 0.959, 13.09741602, 1356.5, 4.700, 0.0, 135.00, 3.00, 4.80, 306.60, 22.80, 62.40, 12.00, 11.40, 7.000, 5.000, 3.000, 6.000, 7.000, 11.000, 6.000, 5.000, 13.078537876, pc_20260310_152841_846.laz, 13.094367292, 20260310-152841.859838, 1773124121763445000
152841.971023, 13.1479517, 20260310-15:28:41-950000, 35.939173665, 126.548871265, 6.733800000000002, 4, 2.0, 371392278.4791, 159294211.5848, 268.172, 13.163402508, -320.67, 10642.68, -2194.54, 4.750, -33.704, -3.515, 91.841, -2.200, 0.243, 0.956, 13.197784539, 1357.5, 4.600, 0.0, 135.00, 3.00, 4.80, 306.00, 22.80, 62.40, 12.00, 11.40, 6.000, 5.000, 6.000, 4.000, 4.000, 7.000, 4.000, 3.000, 13.178956247, pc_20260310_152841_947.laz, 13.195763968, 20260310-152841.961200, 1773124121863570000
152842.070771, 13.248837237, 20260310-15:28:42-050000, 35.939173663333335, 126.54887126, 6.732300000000002, 4, 2.0, 371392278.3086, 159294211.0827, 268.166, 13.263458431, -320.82, 10642.23, -2195.51, 4.755, -33.713, -3.515, 91.842, -2.200, 0.242, 0.962, 13.296929694, 1356.0, 4.700, 0.0, 135.00, 3.00, 4.80, 305.40, 22.80, 62.40, 11.40, 10.80, 6.000, 11.000, 1.000, 3.000, 4.000, 7.000, 4.000, 8.000, 13.27871845, pc_20260310_152842_046.laz, 13.297831416, 20260310-152842.063278, 1773124121963446000
152842.171644, 13.347846186, 20260310-15:28:42-150000, 35.939173665, 126.54887126166666, 6.732100000000003, 4, 2.2, 371392278.4901, 159294211.2378, 268.151, 13.363360264, -320.86, 10642.29, -2195.50, 4.756, -33.710, -3.516, 91.842, -2.200, 0.243, 0.963, 13.397814836, 1354.0, 4.850, 0.0, 135.00, 3.00, 4.80, 304.80, 22.80, 62.40, 11.40, 10.80, 8.000, 8.000, 5.000, 4.000, 5.000, 4.000, 1.000, 3.000, 13.379971048, pc_20260310_152842_147.laz, 13.394126857, 20260310-152842.159562, 1773124122063453000
152842.271038, 13.449451242, 20260310-15:28:42-250000, 35.939173661666665, 126.548871265, 6.732200000000002, 4, 1.3, 371392278.1194, 159294211.5310, 268.163, 13.463364877, -320.81, 10642.07, -2195.08, 4.764, -33.714, -3.532, 91.842, -2.200, 0.241, 0.966, 13.497224767, 1354.5, 4.850, 0.0, 135.00, 3.00, 4.80, 304.80, 22.80, 62.40, 11.40, 10.20, 5.000, 5.000, 4.000, 4.000, 8.000, 4.000, 3.000, 2.000, 13.479819547, pc_20260310_152842_248.laz, 13.496981783999999, 20260310-152842.262437, 1773124122163554000
152842.370544, 13.548088618, 20260310-15:28:42-350000, 35.93917367, 126.548871255, 6.733400000000003, 4, 1.4, 371392279.0519, 159294210.6376, 268.176, 13.56339142, -320.47, 10641.96, -2195.45, 4.761, -33.721, -3.519, 91.842, -2.200, 0.232, 0.963, 13.596588425, 1357.0, 4.700, 0.0, 135.00, 3.00, 4.80, 304.20, 22.80, 62.40, 10.80, 10.20, 7.000, 3.000, 4.000, 5.000, 4.000, 8.000, 3.000, 5.000, 13.578594729, pc_20260310_152842_346.laz, 13.591985859, 20260310-152842.357469, 1773124122263452000
152842.471394, 13.647807633, 20260310-15:28:42-450000, 35.93917366833333, 126.54887125166667, 6.731400000000004, 4, 1.5, 371392278.8616, 159294210.3636, 268.178, 13.663532356, -320.37, 10641.96, -2194.69, 4.763, -33.727, -3.518, 91.842, -2.200, 0.233, 0.960, 13.698592991, 1357.0, 4.700, 0.0, 135.00, 3.00, 4.80, 303.60, 22.80, 62.40, 10.80, 9.60, 7.000, 7.000, 3.000, 5.000, 4.000, 4.000, 3.000, 6.000, 13.67939967, pc_20260310_152842_447.laz, 13.693969464, 20260310-152842.459415, 1773124122363504000
152842.571052, 13.747815569, 20260310-15:28:42-550000, 35.939173673333336, 126.54887124833333, 6.732300000000002, 4, 1.5, 371392279.3718, 159294210.2023, 268.183, 13.763413083, -319.63, 10641.60, -2195.44, 4.761, -33.732, -3.523, 91.839, -2.200, 0.227, 0.958, 13.79692465, 1357.0, 4.650, 0.0, 135.00, 3.00, 4.80, 303.60, 22.80, 62.40, 10.20, 9.60, 7.000, 4.000, 3.000, 1.000, 3.000, 7.000, 8.000, 5.000, 13.779373144, pc_20260310_152842_547.laz, 13.798662237, 20260310-152842.564137, 1773124122463419000
152842.670936, 13.847574173, 20260310-15:28:42-650000, 35.93917368333334, 126.54887124833333, 6.732000000000003, 4, 1.6, 371392280.4652, 159294210.2420, 268.165, 13.86344471, -319.46, 10641.57, -2195.44, 4.766, -33.733, -3.525, 91.838, -2.200, 0.226, 0.963, 13.89772547, 1357.0, 4.600, 0.0, 135.00, 3.00, 4.80, 303.00, 22.80, 62.40, 10.20, 9.60, 5.000, 4.000, 3.000, 4.000, 5.000, 4.000, 6.000, 4.000, 13.880133321, pc_20260310_152842_648.laz, 13.895650498, 20260310-152842.661088, 1773124122563438000
